{
    "50010510000039": {
        "name": "江北****会所",
        "lng": "106.569253",
        "lat": "29.586056",
        "value": 984
    },
    "50010510000040": {
        "name": "乌托****网吧",
        "lng": "106.488929",
        "lat": "29.602083",
        "value": 571
    },
    "50010510000043": {
        "name": "江北****会所",
        "lng": "106.550808",
        "lat": "29.587238",
        "value": 897
    },
    "50010510000044": {
        "name": "江北****风网吧",
        "lng": "106.609207",
        "lat": "29.609128",
        "value": 264
    },
    "50010510000045": {
        "name": "江北****验吧)",
        "lng": "106.580741",
        "lat": "29.61691",
        "value": 665
    },
    "50010510000046": {
        "name": "江北****闲网吧",
        "lng": "106.538275",
        "lat": "29.577077",
        "value": 1070
    },
    "50010510000048": {
        "name": "江北****潮网吧",
        "lng": "106.538727",
        "lat": "29.587331",
        "value": 809
    },
    "50010510000049": {
        "name": "江北****会所",
        "lng": "106.496381",
        "lat": "29.583907",
        "value": 1688
    },
    "50010510000050": {
        "name": "江北****族网吧",
        "lng": "106.46918",
        "lat": "29.569437",
        "value": 1838
    },
    "50010510000051": {
        "name": "江北****会所",
        "lng": "106.530324",
        "lat": "29.590497",
        "value": 1083
    },
    "50010510000052": {
        "name": "江北****渝网吧",
        "lng": "106.484774",
        "lat": "29.589275",
        "value": 386
    },
    "50010510000053": {
        "name": "江北****奇网吧",
        "lng": "106.713615",
        "lat": "29.619318",
        "value": 1223
    },
    "50010510000054": {
        "name": "江北****会所",
        "lng": "106.485834",
        "lat": "29.58671",
        "value": 660
    },
    "50010510000056": {
        "name": "江北****网吧",
        "lng": "106.535837",
        "lat": "29.578951",
        "value": 536
    },
    "50010510000057": {
        "name": "江北****垣网吧",
        "lng": "106.503088",
        "lat": "29.574069",
        "value": 232
    },
    "50010510000058": {
        "name": "江北****会所",
        "lng": "106.653753",
        "lat": "29.626325",
        "value": 1739
    },
    "50010510000060": {
        "name": "江北****天网吧",
        "lng": "106.565767",
        "lat": "29.590358",
        "value": 1321
    },
    "50010510000061": {
        "name": "江北****会所)",
        "lng": "106.543003",
        "lat": "29.572391",
        "value": 964
    },
    "50010510000062": {
        "name": "江北****萝网吧",
        "lng": "106.496426",
        "lat": "29.575327",
        "value": 670
    },
    "50010510000063": {
        "name": "江北****会所",
        "lng": "106.532611",
        "lat": "29.586079",
        "value": 675
    },
    "50010510000064": {
        "name": "江北****堡网吧",
        "lng": "106.536506",
        "lat": "29.568164",
        "value": 1185
    },
    "50010510000065": {
        "name": "江北****顺网吧",
        "lng": "106.767665",
        "lat": "29.628813",
        "value": 491
    },
    "50010510000066": {
        "name": "江北****会所",
        "lng": "106.538727",
        "lat": "29.587331",
        "value": 217
    },
    "50010510000067": {
        "name": "江北****盒网吧",
        "lng": "106.529686",
        "lat": "29.581309",
        "value": 504
    },
    "50010510000069": {
        "name": "江北****会所)",
        "lng": "106.538964",
        "lat": "29.580443",
        "value": 1951
    },
    "50010510000070": {
        "name": "江北****会所",
        "lng": "106.560054",
        "lat": "29.582411",
        "value": 2457
    },
    "50010510000071": {
        "name": "江北****网吧",
        "lng": "106.713615",
        "lat": "29.619318",
        "value": 806
    },
    "50010510000072": {
        "name": "江北****嘴网吧",
        "lng": "106.76896",
        "lat": "29.629966",
        "value": 531
    },
    "50010510000073": {
        "name": "江北****华网吧",
        "lng": "106.525883",
        "lat": "29.567685",
        "value": 677
    },
    "50010510000074": {
        "name": "江北****网络",
        "lng": "106.536607",
        "lat": "29.578744",
        "value": 1874
    },
    "50010510000075": {
        "name": "江北****会所",
        "lng": "106.544609",
        "lat": "29.580694",
        "value": 927
    },
    "50010510000076": {
        "name": "江北****会所)",
        "lng": "106.49793",
        "lat": "29.574696",
        "value": 1151
    },
    "50010510000078": {
        "name": "江北****会所",
        "lng": "106.538339",
        "lat": "29.578363",
        "value": 1525
    },
    "50010510000080": {
        "name": "江北****点网吧",
        "lng": "106.76896",
        "lat": "29.629966",
        "value": 589
    },
    "50010510000081": {
        "name": "江北****山网吧",
        "lng": "106.56346",
        "lat": "29.591489",
        "value": 573
    },
    "50010510000082": {
        "name": "江北****场网吧",
        "lng": "106.539337",
        "lat": "29.57524",
        "value": 1106
    },
    "50010510000083": {
        "name": "江北****辉网吧",
        "lng": "106.713615",
        "lat": "29.619318",
        "value": 1331
    },
    "50010510000085": {
        "name": "江北****会所",
        "lng": "106.487278",
        "lat": "29.574163",
        "value": 1287
    },
    "50010510000087": {
        "name": "江北****居网吧",
        "lng": "106.543705",
        "lat": "29.57776",
        "value": 648
    },
    "50010510000090": {
        "name": "江北****络会所",
        "lng": "106.558792",
        "lat": "29.582406",
        "value": 1700
    },
    "50010510000092": {
        "name": "江北****网吧",
        "lng": "106.713615",
        "lat": "29.619318",
        "value": 753
    },
    "50010510000093": {
        "name": "江北****湾网吧",
        "lng": "106.53476",
        "lat": "29.583821",
        "value": 897
    },
    "50010510000095": {
        "name": "重庆****会所",
        "lng": "106.667642",
        "lat": "29.613772",
        "value": 2932
    },
    "50010510000099": {
        "name": "江北****辉网吧",
        "lng": "106.713615",
        "lat": "29.619318",
        "value": 467
    },
    "50010510000100": {
        "name": "江北****者网吧",
        "lng": "106.469713",
        "lat": "29.57077",
        "value": 1169
    },
    "50010510000101": {
        "name": "江北****谷网吧",
        "lng": "106.580331",
        "lat": "29.617963",
        "value": 974
    },
    "50010510000102": {
        "name": "江北****光网吧",
        "lng": "106.66562",
        "lat": "29.612243",
        "value": 175
    },
    "50010510000104": {
        "name": "江北****禧网吧",
        "lng": "106.533023",
        "lat": "29.578834",
        "value": 320
    },
    "50010510000105": {
        "name": "江北****会所",
        "lng": "106.534763",
        "lat": "29.562017",
        "value": 697
    },
    "50010510000106": {
        "name": "江北****线网吧",
        "lng": "106.532288",
        "lat": "29.577392",
        "value": 828
    },
    "50010510000107": {
        "name": "江北****涛网吧",
        "lng": "106.575739",
        "lat": "29.605594",
        "value": 501
    },
    "50010510000108": {
        "name": "江北****网吧",
        "lng": "106.693223",
        "lat": "29.590519",
        "value": 326
    },
    "50010510000110": {
        "name": "江北****爱网吧",
        "lng": "106.687046",
        "lat": "29.581095",
        "value": 711
    },
    "50010510000111": {
        "name": "江北****网吧",
        "lng": "106.547907",
        "lat": "29.578752",
        "value": 923
    },
    "50010510000112": {
        "name": "江北****会所",
        "lng": "106.53799",
        "lat": "29.588964",
        "value": 767
    },
    "50010310000136": {
        "name": "渝中****爽网吧",
        "lng": "106.559386",
        "lat": "29.559703",
        "value": 754
    },
    "50010310000139": {
        "name": "渝中****园网吧",
        "lng": "106.564703",
        "lat": "29.569134",
        "value": 1238
    },
    "50010310000140": {
        "name": "渝中****子网吧",
        "lng": "106.555508",
        "lat": "29.556424",
        "value": 1036
    },
    "50010310000141": {
        "name": "渝中****玲网吧",
        "lng": "106.523641",
        "lat": "29.543564",
        "value": 1567
    },
    "50010310000144": {
        "name": "渝中****魔网吧",
        "lng": "106.531313",
        "lat": "29.555419",
        "value": 671
    },
    "50010310000150": {
        "name": "渝中****天网城",
        "lng": "106.526213",
        "lat": "29.54651",
        "value": 2152
    },
    "50010310000152": {
        "name": "渝中****光网吧",
        "lng": "106.583128",
        "lat": "29.555946",
        "value": 440
    },
    "50010310000157": {
        "name": "渝中****秋网吧",
        "lng": "106.556196",
        "lat": "29.555553",
        "value": 464
    },
    "50010310000162": {
        "name": "渝中****源天地",
        "lng": "106.575309",
        "lat": "29.562821",
        "value": 729
    },
    "50010310000163": {
        "name": "渝中****感网吧",
        "lng": "106.517554",
        "lat": "29.536215",
        "value": 745
    },
    "50010310000174": {
        "name": "渝中****情网吧",
        "lng": "106.521976",
        "lat": "29.541863",
        "value": 804
    },
    "50010310000180": {
        "name": "渝中****土网吧",
        "lng": "106.560397",
        "lat": "29.569269",
        "value": 1609
    },
    "50010310000181": {
        "name": "渝中****网吧)",
        "lng": "106.576432",
        "lat": "29.562282",
        "value": 352
    },
    "50010310000226": {
        "name": "渝中****土网吧",
        "lng": "106.585451",
        "lat": "29.559489",
        "value": 843
    },
    "50010310000228": {
        "name": "渝中****事通",
        "lng": "106.566933",
        "lat": "29.56189",
        "value": 1245
    },
    "50010410000040": {
        "name": "大渡****络会所",
        "lng": "106.496898",
        "lat": "29.495405",
        "value": 928
    },
    "50010410000042": {
        "name": "大渡****木网吧",
        "lng": "106.488974",
        "lat": "29.475414",
        "value": 657
    },
    "50010410000044": {
        "name": "大渡****来网吧",
        "lng": "106.493422",
        "lat": "29.485359",
        "value": 1609
    },
    "50010410000049": {
        "name": "大渡****尔网吧",
        "lng": "106.502854",
        "lat": "29.495375",
        "value": 760
    },
    "50010410000051": {
        "name": "大渡****线网吧",
        "lng": "106.486104",
        "lat": "29.479997",
        "value": 1125
    },
    "50010410000052": {
        "name": "大渡****巢网吧",
        "lng": "106.4861",
        "lat": "29.479998",
        "value": 463
    },
    "50010410000053": {
        "name": "大渡****络会所",
        "lng": "106.489861",
        "lat": "29.48479",
        "value": 723
    },
    "50010410000055": {
        "name": "大渡****下网吧",
        "lng": "106.491814",
        "lat": "29.495342",
        "value": 998
    },
    "50010510000001": {
        "name": "江北****凡网吧",
        "lng": "106.537525",
        "lat": "29.57594",
        "value": 307
    },
    "50010510000002": {
        "name": "江北****业网吧",
        "lng": "106.562385",
        "lat": "29.584263",
        "value": 621
    },
    "50010310000184": {
        "name": "渝中****国网吧",
        "lng": "106.552102",
        "lat": "29.564998",
        "value": 1039
    },
    "50010310000185": {
        "name": "渝中****恋网吧",
        "lng": "106.523903",
        "lat": "29.544944",
        "value": 746
    },
    "50010310000186": {
        "name": "渝中****岸网吧",
        "lng": "106.594154",
        "lat": "29.569513",
        "value": 949
    },
    "50010310000187": {
        "name": "渝中****浩网吧",
        "lng": "106.549094",
        "lat": "29.561201",
        "value": 926
    },
    "50010310000188": {
        "name": "渝中****浪网吧",
        "lng": "106.537551",
        "lat": "29.543972",
        "value": 720
    },
    "50010310000195": {
        "name": "渝中****间网吧",
        "lng": "106.564583",
        "lat": "29.569311",
        "value": 670
    },
    "50010310000198": {
        "name": "（渝****网吧)",
        "lng": "106.576326",
        "lat": "29.560343",
        "value": 1867
    },
    "50010310000202": {
        "name": "渝中****网吧",
        "lng": "106.558255",
        "lat": "29.567705",
        "value": 1654
    },
    "50010310000207": {
        "name": "渝中****网吧)",
        "lng": "106.552192",
        "lat": "29.564769",
        "value": 159
    },
    "50010310000213": {
        "name": "渝中****利网吧",
        "lng": "106.56815",
        "lat": "29.560679",
        "value": 1222
    },
    "50010310000214": {
        "name": "渝中****佳网吧",
        "lng": "106.581658",
        "lat": "29.558778",
        "value": 630
    },
    "50010310000215": {
        "name": "渝中****琦网吧",
        "lng": "106.57586",
        "lat": "29.563207",
        "value": 722
    },
    "50010310000217": {
        "name": "渝中****园网吧",
        "lng": "106.537551",
        "lat": "29.543972",
        "value": 423
    },
    "50010310000220": {
        "name": "重庆****江门店",
        "lng": "106.578334",
        "lat": "29.566924",
        "value": 2489
    },
    "50010510000139": {
        "name": "江北****静网吧",
        "lng": "106.469631",
        "lat": "29.570565",
        "value": 1183
    },
    "50010510000140": {
        "name": "江北****会所",
        "lng": "106.497763",
        "lat": "29.57436",
        "value": 1267
    },
    "50010510000142": {
        "name": "江北****风网城",
        "lng": "106.490587",
        "lat": "29.587875",
        "value": 24
    },
    "50010510000143": {
        "name": "江北****彩网吧",
        "lng": "106.490793",
        "lat": "29.571837",
        "value": 774
    },
    "50010510000145": {
        "name": "江北****会所",
        "lng": "106.713615",
        "lat": "29.619318",
        "value": 2176
    },
    "50010310000235": {
        "name": "渝中****网吧",
        "lng": "106.581889",
        "lat": "29.560105",
        "value": 1793
    },
    "50010310000237": {
        "name": "渝中****盟网吧",
        "lng": "106.584998",
        "lat": "29.564185",
        "value": 1699
    },
    "50010310000239": {
        "name": "渝中****灿网吧",
        "lng": "106.560592",
        "lat": "29.56607",
        "value": 833
    },
    "50010310000246": {
        "name": "渝中****露网吧",
        "lng": "106.523254",
        "lat": "29.54739",
        "value": 1499
    },
    "50010310000247": {
        "name": "渝中****嘉网吧",
        "lng": "106.512571",
        "lat": "29.545401",
        "value": 1608
    },
    "50010310000249": {
        "name": "渝中****华网吧",
        "lng": "106.568579",
        "lat": "29.564653",
        "value": 797
    },
    "50010310000272": {
        "name": "渝中****华网吧",
        "lng": "106.589588",
        "lat": "29.569162",
        "value": 1087
    },
    "50010410000001": {
        "name": "大渡****腾网吧",
        "lng": "106.488292",
        "lat": "29.478548",
        "value": 387
    },
    "50010410000003": {
        "name": "大渡****纪网吧",
        "lng": "106.48915",
        "lat": "29.48141",
        "value": 128
    },
    "50010410000010": {
        "name": "大渡****向网吧",
        "lng": "106.479117",
        "lat": "29.461448",
        "value": 497
    },
    "50010410000011": {
        "name": "大渡****乐网吧",
        "lng": "106.496536",
        "lat": "29.436599",
        "value": 953
    },
    "50010410000015": {
        "name": "大渡****尔网吧",
        "lng": "106.48612",
        "lat": "29.477631",
        "value": 987
    },
    "50010410000017": {
        "name": "大渡****凡网吧",
        "lng": "106.490678",
        "lat": "29.495674",
        "value": 456
    },
    "50010410000019": {
        "name": "大渡****捷网吧",
        "lng": "106.508917",
        "lat": "29.436948",
        "value": 960
    },
    "50010410000025": {
        "name": "大渡****枫网吧",
        "lng": "106.49012",
        "lat": "29.490009",
        "value": 373
    },
    "50010410000030": {
        "name": "大渡****利网吧",
        "lng": "106.477689",
        "lat": "29.416312",
        "value": 207
    },
    "50010410000031": {
        "name": "大渡****琴网吧",
        "lng": "106.481306",
        "lat": "29.484926",
        "value": 525
    },
    "50010410000032": {
        "name": "大渡****鑫网吧",
        "lng": "106.487714",
        "lat": "29.483129",
        "value": 728
    },
    "50010410000035": {
        "name": "大渡****我网吧",
        "lng": "106.485063",
        "lat": "29.460774",
        "value": 1058
    },
    "50010410000038": {
        "name": "大渡****聚网吧",
        "lng": "106.484537",
        "lat": "29.46504",
        "value": 360
    },
    "50010310000002": {
        "name": "渝中****端网吧",
        "lng": "106.555975",
        "lat": "29.56042",
        "value": 1587
    },
    "50010310000004": {
        "name": "渝中****限公司",
        "lng": "106.555644",
        "lat": "29.560195",
        "value": 956
    },
    "50010310000007": {
        "name": "渝中****比网吧",
        "lng": "106.580082",
        "lat": "29.560647",
        "value": 1692
    },
    "50010310000009": {
        "name": "渝中****松网吧",
        "lng": "106.578668",
        "lat": "29.555052",
        "value": 704
    },
    "50010310000011": {
        "name": "渝中****艺网吧",
        "lng": "106.557978",
        "lat": "29.556022",
        "value": 1042
    },
    "50010310000012": {
        "name": "渝中****梦网吧",
        "lng": "106.56736",
        "lat": "29.561854",
        "value": 839
    },
    "50010310000013": {
        "name": "渝中****网吧)",
        "lng": "106.586057",
        "lat": "29.562266",
        "value": 1518
    },
    "50010310000020": {
        "name": "渝中****星网吧",
        "lng": "106.550885",
        "lat": "29.559164",
        "value": 537
    },
    "50010310000021": {
        "name": "渝中****雪网吧",
        "lng": "106.567821",
        "lat": "29.561637",
        "value": 1354
    },
    "50010310000024": {
        "name": "渝中****网吧)",
        "lng": "106.556196",
        "lat": "29.555553",
        "value": 741
    },
    "50010310000025": {
        "name": "渝中****寰宇)",
        "lng": "106.584219",
        "lat": "29.56337",
        "value": 2759
    },
    "50010510000113": {
        "name": "江北****克网吧",
        "lng": "106.582973",
        "lat": "29.616122",
        "value": 542
    },
    "50010510000114": {
        "name": "江北****会所",
        "lng": "106.538438",
        "lat": "29.589462",
        "value": 814
    },
    "50010510000115": {
        "name": "江北****会所",
        "lng": "106.541082",
        "lat": "29.582737",
        "value": 190
    },
    "50010510000116": {
        "name": "江北****强网吧",
        "lng": "106.534461",
        "lat": "29.58742",
        "value": 203
    },
    "50010510000117": {
        "name": "江北****家园)",
        "lng": "106.530087",
        "lat": "29.58768",
        "value": 1212
    },
    "50010510000118": {
        "name": "江北****鑫网吧",
        "lng": "106.548262",
        "lat": "29.582436",
        "value": 1488
    },
    "50010510000119": {
        "name": "江北****会所",
        "lng": "106.534952",
        "lat": "29.581435",
        "value": 1524
    },
    "50010510000120": {
        "name": "江北****宁网吧",
        "lng": "106.54704",
        "lat": "29.589327",
        "value": 946
    },
    "50010510000121": {
        "name": "江北****渔网吧",
        "lng": "106.551165",
        "lat": "29.579435",
        "value": 733
    },
    "50010510000123": {
        "name": "江北****会所",
        "lng": "106.534816",
        "lat": "29.562836",
        "value": 1173
    },
    "50010510000125": {
        "name": "江北****复网吧",
        "lng": "106.799102",
        "lat": "29.650848",
        "value": 552
    },
    "50010510000126": {
        "name": "江北****豪网吧",
        "lng": "106.535627",
        "lat": "29.583296",
        "value": 1391
    },
    "50010510000128": {
        "name": "江北****创网吧",
        "lng": "106.563819",
        "lat": "29.586063",
        "value": 685
    },
    "50010510000130": {
        "name": "江北****会所",
        "lng": "106.497119",
        "lat": "29.574042",
        "value": 706
    },
    "50010510000131": {
        "name": "江北****会所",
        "lng": "106.561323",
        "lat": "29.58642",
        "value": 1392
    },
    "50010510000132": {
        "name": "江北****会所",
        "lng": "106.53999",
        "lat": "29.57781",
        "value": 895
    },
    "50010510000133": {
        "name": "江北****剑网吧",
        "lng": "106.531511",
        "lat": "29.562972",
        "value": 1119
    },
    "50010510000134": {
        "name": "江北****会所",
        "lng": "106.542366",
        "lat": "29.583468",
        "value": 1638
    },
    "50010510000136": {
        "name": "重庆****会所",
        "lng": "106.538304",
        "lat": "29.57806",
        "value": 2321
    },
    "50010510000137": {
        "name": "江北****运网吧",
        "lng": "106.65634",
        "lat": "29.598658",
        "value": 2425
    },
    "50010510000138": {
        "name": "江北****验网吧",
        "lng": "106.540306",
        "lat": "29.570947",
        "value": 162
    },
    "50010310000028": {
        "name": "渝中****路网吧",
        "lng": "106.551007",
        "lat": "29.561806",
        "value": 43
    },
    "50010310000029": {
        "name": "渝中****洁网吧",
        "lng": "106.553201",
        "lat": "29.558241",
        "value": 470
    },
    "50010810000082": {
        "name": "南岸****奇网吧",
        "lng": "106.582969",
        "lat": "29.539318",
        "value": 1266
    },
    "50010810000083": {
        "name": "南岸****带网吧",
        "lng": "106.56944",
        "lat": "29.534468",
        "value": 1200
    },
    "50010810000084": {
        "name": "南岸****费点",
        "lng": "106.610031",
        "lat": "29.541007",
        "value": 1194
    },
    "50010810000085": {
        "name": "南岸****捷网吧",
        "lng": "106.557012",
        "lat": "29.526182",
        "value": 903
    },
    "50010810000086": {
        "name": "南岸****河网吧",
        "lng": "106.565275",
        "lat": "29.530821",
        "value": 1121
    },
    "50010810000087": {
        "name": "南岸****虫网吧",
        "lng": "106.564115",
        "lat": "29.529238",
        "value": 1062
    },
    "50010810000088": {
        "name": "南岸****秀网吧",
        "lng": "106.575951",
        "lat": "29.525501",
        "value": 68
    },
    "50010810000089": {
        "name": "南岸****飞网吧",
        "lng": "106.601592",
        "lat": "29.557362",
        "value": 770
    },
    "50010810000090": {
        "name": "南岸****奇网吧",
        "lng": "106.575558",
        "lat": "29.533055",
        "value": 1420
    },
    "50010810000091": {
        "name": "南岸****网吧 ",
        "lng": "106.581629",
        "lat": "29.527554",
        "value": 739
    },
    "50010810000096": {
        "name": "南岸****雅网吧",
        "lng": "106.567316",
        "lat": "29.529747",
        "value": 251
    },
    "50010810000099": {
        "name": "南岸****顺网吧",
        "lng": "106.667178",
        "lat": "29.541515",
        "value": 1797
    },
    "50010810000100": {
        "name": "南岸****达网吧",
        "lng": "106.572003",
        "lat": "29.534618",
        "value": 912
    },
    "50010810000101": {
        "name": "南岸****网网吧",
        "lng": "106.564497",
        "lat": "29.532705",
        "value": 649
    },
    "50010810000102": {
        "name": "南岸****盈网吧",
        "lng": "106.58139",
        "lat": "29.519783",
        "value": 480
    },
    "50010810000104": {
        "name": "南岸****莎网吧",
        "lng": "106.667178",
        "lat": "29.541515",
        "value": 653
    },
    "50010810000105": {
        "name": "南岸****恋网吧",
        "lng": "106.608498",
        "lat": "29.510449",
        "value": 729
    },
    "50010810000106": {
        "name": "南岸****贝网吧",
        "lng": "106.686982",
        "lat": "29.537473",
        "value": 176
    },
    "50010810000107": {
        "name": "南岸****行网吧",
        "lng": "106.608167",
        "lat": "29.582229",
        "value": 388
    },
    "50010810000108": {
        "name": "南岸****花网吧",
        "lng": "106.551031",
        "lat": "29.518669",
        "value": 601
    },
    "50010810000109": {
        "name": "南岸****太网吧",
        "lng": "106.566235",
        "lat": "29.541463",
        "value": 549
    },
    "50010810000110": {
        "name": "南岸****斯网吧",
        "lng": "106.578302",
        "lat": "29.539864",
        "value": 906
    },
    "50010810000111": {
        "name": "南岸****新网吧",
        "lng": "106.578766",
        "lat": "29.532937",
        "value": 323
    },
    "50010810000113": {
        "name": "南岸****人网吧",
        "lng": "106.607972",
        "lat": "29.50589",
        "value": 329
    },
    "50010810000114": {
        "name": "南岸****尔网吧",
        "lng": "106.667178",
        "lat": "29.541515",
        "value": 1262
    },
    "50010810000117": {
        "name": "南岸****网吧",
        "lng": "106.607054",
        "lat": "29.577515",
        "value": 305
    },
    "50010810000118": {
        "name": "南岸****概念)",
        "lng": "106.571261",
        "lat": "29.533401",
        "value": 2672
    },
    "50010810000119": {
        "name": "南岸****影网吧",
        "lng": "106.581365",
        "lat": "29.517995",
        "value": 1218
    },
    "50010810000120": {
        "name": "南岸****悦网吧",
        "lng": "106.582171",
        "lat": "29.538481",
        "value": 790
    },
    "50010810000014": {
        "name": "南岸****洋网吧",
        "lng": "106.666254",
        "lat": "29.512704",
        "value": 391
    },
    "50010810000015": {
        "name": "南岸****佳网吧",
        "lng": "106.598397",
        "lat": "29.587488",
        "value": 575
    },
    "50010810000016": {
        "name": "南岸****康网吧",
        "lng": "106.577922",
        "lat": "29.531305",
        "value": 979
    },
    "50010810000017": {
        "name": "南岸****通网吧",
        "lng": "106.671494",
        "lat": "29.512264",
        "value": 593
    },
    "50010810000020": {
        "name": "南岸****日网吧",
        "lng": "106.572086",
        "lat": "29.49876",
        "value": 1526
    },
    "50010810000022": {
        "name": "南岸****店网吧",
        "lng": "106.569904",
        "lat": "29.530545",
        "value": 318
    },
    "50010810000025": {
        "name": "南岸****枫网吧",
        "lng": "106.581438",
        "lat": "29.519784",
        "value": 285
    },
    "50010810000026": {
        "name": "南岸****车网吧",
        "lng": "106.606986",
        "lat": "29.575257",
        "value": 504
    },
    "50010810000027": {
        "name": "南岸****友网吧",
        "lng": "106.574975",
        "lat": "29.530919",
        "value": 546
    },
    "50010810000028": {
        "name": "南岸****网苑)",
        "lng": "106.600769",
        "lat": "29.558045",
        "value": 727
    },
    "50010810000029": {
        "name": "南岸****锁网吧",
        "lng": "",
        "lat": "",
        "value": 417
    },
    "50010810000030": {
        "name": "南岸****旋网吧",
        "lng": "106.612021",
        "lat": "29.545993",
        "value": 471
    },
    "50010810000032": {
        "name": "南岸****赢网吧",
        "lng": "106.56944",
        "lat": "29.534468",
        "value": 78
    },
    "50010810000033": {
        "name": "南岸****潮网吧",
        "lng": "106.672904",
        "lat": "29.510531",
        "value": 456
    },
    "50010810000034": {
        "name": "南岸****园网吧",
        "lng": "106.648638",
        "lat": "29.492595",
        "value": 1578
    },
    "50010810000035": {
        "name": "南岸****星网吧",
        "lng": "106.584932",
        "lat": "29.518629",
        "value": 408
    },
    "50010810000036": {
        "name": "南岸****豹网吧",
        "lng": "106.567491",
        "lat": "29.53266",
        "value": 598
    },
    "50010810000039": {
        "name": "南岸****龙网吧",
        "lng": "106.600789",
        "lat": "29.553865",
        "value": 1345
    },
    "50011210000001": {
        "name": "渝北****源网吧",
        "lng": "106.63545",
        "lat": "29.722203",
        "value": 998
    },
    "50011210000002": {
        "name": "渝北****城网吧",
        "lng": "106.645553",
        "lat": "29.747432",
        "value": 980
    },
    "50011210000003": {
        "name": "渝北****号网吧",
        "lng": "106.517989",
        "lat": "29.588149",
        "value": 543
    },
    "50011210000004": {
        "name": "渝北****度网吧",
        "lng": "106.641799",
        "lat": "29.743672",
        "value": 339
    },
    "50011210000005": {
        "name": "渝北****伦网吧",
        "lng": "",
        "lat": "",
        "value": 1320
    },
    "50011210000006": {
        "name": "渝北****缘网吧",
        "lng": "106.632888",
        "lat": "29.746623",
        "value": 303
    },
    "50011210000008": {
        "name": "渝北****红网吧",
        "lng": "106.50923",
        "lat": "29.588973",
        "value": 540
    },
    "50011210000009": {
        "name": "渝北****通网吧",
        "lng": "106.526753",
        "lat": "29.597748",
        "value": 1121
    },
    "50011210000010": {
        "name": "渝北****星网吧",
        "lng": "106.643603",
        "lat": "29.745505",
        "value": 1256
    },
    "50011210000011": {
        "name": "渝北****主网吧",
        "lng": "106.536097",
        "lat": "29.593955",
        "value": 822
    },
    "50011210000013": {
        "name": "渝北****天网吧",
        "lng": "106.641799",
        "lat": "29.743672",
        "value": 842
    },
    "50011210000014": {
        "name": "渝北****尚网吧",
        "lng": "106.630392",
        "lat": "29.714392",
        "value": 542
    },
    "50011210000015": {
        "name": "渝北****希网吧",
        "lng": "106.613003",
        "lat": "29.682224",
        "value": 1069
    },
    "50011210000016": {
        "name": "渝北****喜网吧",
        "lng": "106.527082",
        "lat": "29.596016",
        "value": 877
    },
    "50011210000017": {
        "name": "渝北****贵网吧",
        "lng": "106.628956",
        "lat": "29.710361",
        "value": 212
    },
    "50011210000018": {
        "name": "渝北****斯网吧",
        "lng": "106.644717",
        "lat": "29.747042",
        "value": 1565
    },
    "50011210000020": {
        "name": "渝北****友网吧",
        "lng": "106.528607",
        "lat": "29.593502",
        "value": 1460
    },
    "50011210000021": {
        "name": "渝北****日网吧",
        "lng": "106.523999",
        "lat": "29.591313",
        "value": 1137
    },
    "50011210000023": {
        "name": "渝北****门网吧",
        "lng": "106.612274",
        "lat": "29.70805",
        "value": 398
    },
    "50011210000025": {
        "name": "渝北****代网吧",
        "lng": "106.628726",
        "lat": "29.708371",
        "value": 810
    },
    "50011210000026": {
        "name": "渝北****乐网吧",
        "lng": "106.627222",
        "lat": "29.706707",
        "value": 626
    },
    "50011210000028": {
        "name": "渝北****柒网吧",
        "lng": "106.526996",
        "lat": "29.592365",
        "value": 2441
    },
    "50011210000029": {
        "name": "渝北****光网吧",
        "lng": "106.508869",
        "lat": "29.59518",
        "value": 930
    },
    "50011210000030": {
        "name": "渝北****山网吧",
        "lng": "106.616994",
        "lat": "29.699981",
        "value": 390
    },
    "50011210000031": {
        "name": "渝北****后网吧",
        "lng": "106.553408",
        "lat": "29.588847",
        "value": 819
    },
    "50011210000034": {
        "name": "渝北****鑫网吧",
        "lng": "106.621659",
        "lat": "29.702972",
        "value": 865
    },
    "50011210000036": {
        "name": "渝北****合网吧",
        "lng": "106.613003",
        "lat": "29.682224",
        "value": 623
    },
    "50011210000037": {
        "name": "渝北****壁网吧",
        "lng": "106.649784",
        "lat": "29.745895",
        "value": 924
    },
    "50011210000038": {
        "name": "渝北****飞网吧",
        "lng": "106.522728",
        "lat": "29.604798",
        "value": 1204
    },
    "50010510000146": {
        "name": "江北****会所",
        "lng": "106.490472",
        "lat": "29.589494",
        "value": 1024
    },
    "50010510000149": {
        "name": "江北****会所",
        "lng": "106.540535",
        "lat": "29.582668",
        "value": 1207
    },
    "50010510000151": {
        "name": "江北****会所",
        "lng": "106.532243",
        "lat": "29.577414",
        "value": 546
    },
    "50010510000152": {
        "name": "江北****会所",
        "lng": "106.546838",
        "lat": "29.582496",
        "value": 1583
    },
    "50010510000154": {
        "name": "江北****博网吧",
        "lng": "106.538946",
        "lat": "29.588153",
        "value": 1173
    },
    "50010310000030": {
        "name": "渝中****人网吧",
        "lng": "106.522585",
        "lat": "29.543271",
        "value": 1460
    },
    "50010310000034": {
        "name": "渝中****你网吧",
        "lng": "106.586274",
        "lat": "29.566597",
        "value": 841
    },
    "50010310000038": {
        "name": "重庆****园路店",
        "lng": "106.587465",
        "lat": "29.56819",
        "value": 2474
    },
    "50010310000041": {
        "name": "渝中****明网吧",
        "lng": "106.589547",
        "lat": "29.560769",
        "value": 1104
    },
    "50010310000043": {
        "name": "渝中****轩网吧",
        "lng": "106.574376",
        "lat": "29.565057",
        "value": 732
    },
    "50010310000045": {
        "name": "渝中****靓网吧",
        "lng": "106.57458",
        "lat": "29.564208",
        "value": 1188
    },
    "50010310000046": {
        "name": "渝中****读网吧",
        "lng": "106.576473",
        "lat": "29.558481",
        "value": 964
    },
    "50010310000054": {
        "name": "渝中****结网吧",
        "lng": "106.53383",
        "lat": "29.54723",
        "value": 755
    },
    "50010310000055": {
        "name": "渝中****心网吧",
        "lng": "106.512399",
        "lat": "29.541719",
        "value": 887
    },
    "50010310000068": {
        "name": "渝中****下网吧",
        "lng": "106.579182",
        "lat": "29.561044",
        "value": 174
    },
    "50010310000071": {
        "name": "渝中****谋网吧",
        "lng": "106.523903",
        "lat": "29.544944",
        "value": 1272
    },
    "50010310000072": {
        "name": "渝中****鸟网吧",
        "lng": "106.578215",
        "lat": "29.563706",
        "value": 2041
    },
    "50010310000074": {
        "name": "渝中****限网吧",
        "lng": "106.520772",
        "lat": "29.546809",
        "value": 694
    },
    "50010310000099": {
        "name": "渝中****飞网吧",
        "lng": "106.59017",
        "lat": "29.561039",
        "value": 754
    },
    "50010310000102": {
        "name": "渝中****络会所",
        "lng": "106.556191",
        "lat": "29.565459",
        "value": 734
    },
    "50010310000104": {
        "name": "（渝****简称)",
        "lng": "106.512639",
        "lat": "29.54229",
        "value": 357
    },
    "50010310000107": {
        "name": "渝中****语网吧",
        "lng": "106.562708",
        "lat": "29.569698",
        "value": 879
    },
    "50010310000109": {
        "name": "渝中****红网吧",
        "lng": "106.554696",
        "lat": "29.565001",
        "value": 1732
    },
    "50010310000112": {
        "name": "渝中****瑰网吧",
        "lng": "106.589848",
        "lat": "29.561204",
        "value": 1106
    },
    "50010310000114": {
        "name": "(渝****派网吧",
        "lng": "106.518051",
        "lat": "29.547421",
        "value": 2096
    },
    "50010310000121": {
        "name": "渝中****都网吧",
        "lng": "106.585399",
        "lat": "29.56703",
        "value": 1835
    },
    "50010310000125": {
        "name": "渝中****健网吧",
        "lng": "106.522575",
        "lat": "29.543991",
        "value": 880
    },
    "50010310000126": {
        "name": "渝中****网苑)",
        "lng": "106.502747",
        "lat": "29.54067",
        "value": 1098
    },
    "50010310000129": {
        "name": "渝中****辉网吧",
        "lng": "106.519416",
        "lat": "29.544994",
        "value": 818
    },
    "50010910000104": {
        "name": "重庆****星网吧",
        "lng": "106.47736",
        "lat": "29.757289",
        "value": 869
    },
    "50010910000105": {
        "name": "重庆****曾网吧",
        "lng": "106.455585",
        "lat": "29.689098",
        "value": 559
    },
    "50010910000106": {
        "name": "重庆****卡网吧",
        "lng": "106.430692",
        "lat": "29.838307",
        "value": 227
    },
    "50010910000107": {
        "name": "重庆****发网吧",
        "lng": "106.468716",
        "lat": "29.73527",
        "value": 668
    },
    "50010910000114": {
        "name": "重庆****龙网吧",
        "lng": "106.441125",
        "lat": "29.835195",
        "value": 246
    },
    "50010910000115": {
        "name": "重庆****和网吧",
        "lng": "106.441226",
        "lat": "29.834315",
        "value": 506
    },
    "50010910000116": {
        "name": "重庆****煦网吧",
        "lng": "106.440121",
        "lat": "29.830551",
        "value": 421
    },
    "50010910000121": {
        "name": "重庆****霞网吧",
        "lng": "106.446743",
        "lat": "29.827013",
        "value": 328
    },
    "50010910000122": {
        "name": "重庆****园网吧",
        "lng": "106.443106",
        "lat": "29.832473",
        "value": 1238
    },
    "50010910000126": {
        "name": "重庆****驰网吧",
        "lng": "106.444666",
        "lat": "29.830897",
        "value": 123
    },
    "50010910000127": {
        "name": "重庆****成网吧",
        "lng": "106.481223",
        "lat": "29.739097",
        "value": 105
    },
    "50010910000129": {
        "name": "北碚****网吧",
        "lng": "106.431064",
        "lat": "29.838307",
        "value": 917
    },
    "50010910000130": {
        "name": "北碚****潮网吧",
        "lng": "106.428364",
        "lat": "29.819548",
        "value": 749
    },
    "50010910000135": {
        "name": "重庆****希网吧",
        "lng": "106.505957",
        "lat": "29.788426",
        "value": 38
    },
    "50010910000136": {
        "name": "重庆****益网吧",
        "lng": "106.44178",
        "lat": "29.82074",
        "value": 370
    },
    "50010910000140": {
        "name": "重庆****伦网吧",
        "lng": "106.500882",
        "lat": "29.750591",
        "value": 267
    },
    "50010910000146": {
        "name": "重庆****鸿网吧",
        "lng": "106.379178",
        "lat": "29.771286",
        "value": 602
    },
    "50010910000149": {
        "name": "重庆****宏网吧",
        "lng": "106.444247",
        "lat": "29.831097",
        "value": 392
    },
    "50010910000151": {
        "name": "重庆****子网吧",
        "lng": "106.559806",
        "lat": "29.776433",
        "value": 115
    },
    "50010910000152": {
        "name": "北碚****达网吧",
        "lng": "106.42925",
        "lat": "29.821865",
        "value": 463
    },
    "50010910000155": {
        "name": "重庆****卡网吧",
        "lng": "106.378643",
        "lat": "29.77189",
        "value": 485
    },
    "50010910000156": {
        "name": "重庆****润网吧",
        "lng": "106.409203",
        "lat": "29.807377",
        "value": 809
    },
    "50010910000160": {
        "name": "北碚****子网吧",
        "lng": "106.670929",
        "lat": "30.030376",
        "value": 669
    },
    "50010910000161": {
        "name": "重庆****网吧",
        "lng": "106.446184",
        "lat": "29.82809",
        "value": 374
    },
    "50010910000162": {
        "name": "重庆****前网吧",
        "lng": "106.471149",
        "lat": "29.74547",
        "value": 882
    },
    "50010910000166": {
        "name": "重庆****网咖",
        "lng": "106.3758",
        "lat": "29.770212",
        "value": 400
    },
    "50010910000172": {
        "name": "北碚****浪网吧",
        "lng": "106.441173",
        "lat": "29.834001",
        "value": 2273
    },
    "50010910000174": {
        "name": "重庆****花网吧",
        "lng": "106.409833",
        "lat": "29.820296",
        "value": 377
    },
    "50010910000175": {
        "name": "北碚****核对",
        "lng": "106.508537",
        "lat": "29.788827",
        "value": 307
    },
    "50010910000176": {
        "name": "重庆****脸网吧",
        "lng": "106.432804",
        "lat": "29.825171",
        "value": 2252
    },
    "50010910000177": {
        "name": "重庆****畅网吧",
        "lng": "106.39859",
        "lat": "29.808577",
        "value": 199
    },
    "50010910000182": {
        "name": "重庆****兽网吧",
        "lng": "",
        "lat": "",
        "value": 502
    },
    "50010910000183": {
        "name": "重庆****锐网吧",
        "lng": "106.452456",
        "lat": "29.67277",
        "value": 323
    },
    "50010910000185": {
        "name": "重庆****前网吧",
        "lng": "106.446472",
        "lat": "29.827178",
        "value": 245
    },
    "50010510000004": {
        "name": "江北****网吧",
        "lng": "106.482355",
        "lat": "29.59637",
        "value": 290
    },
    "50010510000006": {
        "name": "江北****尼网吧",
        "lng": "106.550019",
        "lat": "29.57893",
        "value": 512
    },
    "50010510000007": {
        "name": "江北****冲网吧",
        "lng": "106.538907",
        "lat": "29.586515",
        "value": 1231
    },
    "50010510000008": {
        "name": "江北****江网吧",
        "lng": "106.543043",
        "lat": "29.572691",
        "value": 1832
    },
    "50010510000009": {
        "name": "江北****会所",
        "lng": "106.534574",
        "lat": "29.590706",
        "value": 1174
    },
    "50010510000010": {
        "name": "江北****会所",
        "lng": "106.49736",
        "lat": "29.57521",
        "value": 889
    },
    "50010510000013": {
        "name": "江北****阁网吧",
        "lng": "106.547889",
        "lat": "29.577372",
        "value": 1700
    },
    "50010510000014": {
        "name": "江北****海网吧",
        "lng": "106.568086",
        "lat": "29.580039",
        "value": 1200
    },
    "50010510000015": {
        "name": "江北****喜网吧",
        "lng": "106.561323",
        "lat": "29.58642",
        "value": 2944
    },
    "50010510000016": {
        "name": "江北****科网吧",
        "lng": "106.639959",
        "lat": "29.61683",
        "value": 306
    },
    "50010510000017": {
        "name": "江北****竹网吧",
        "lng": "106.533201",
        "lat": "29.583205",
        "value": 1007
    },
    "50010510000019": {
        "name": "江北****典网吧",
        "lng": "106.548779",
        "lat": "29.584013",
        "value": 942
    },
    "50010510000020": {
        "name": "江北****韬网吧",
        "lng": "106.552049",
        "lat": "29.662558",
        "value": 714
    },
    "50010510000023": {
        "name": "江北****苑网吧",
        "lng": "106.494171",
        "lat": "29.585646",
        "value": 446
    },
    "50010510000024": {
        "name": "江北****月网吧",
        "lng": "106.767665",
        "lat": "29.628813",
        "value": 479
    },
    "50010510000025": {
        "name": "江北****海网吧",
        "lng": "106.488624",
        "lat": "29.593033",
        "value": 1018
    },
    "50010510000026": {
        "name": "江北****本网吧",
        "lng": "106.564265",
        "lat": "29.586312",
        "value": 1296
    },
    "50010510000028": {
        "name": "江北****格网吧",
        "lng": "106.537811",
        "lat": "29.578624",
        "value": 97
    },
    "50010510000029": {
        "name": "江北****事网吧",
        "lng": "106.536672",
        "lat": "29.582994",
        "value": 2449
    },
    "50010510000030": {
        "name": "江北****眼网吧",
        "lng": "106.545267",
        "lat": "29.579714",
        "value": 1616
    },
    "50010510000031": {
        "name": "江北****会所",
        "lng": "106.531673",
        "lat": "29.575042",
        "value": 903
    },
    "50010510000032": {
        "name": "江北****度网吧",
        "lng": "106.545297",
        "lat": "29.579414",
        "value": 1184
    },
    "50010510000033": {
        "name": "江北****网城",
        "lng": "106.534461",
        "lat": "29.58742",
        "value": 435
    },
    "50010510000034": {
        "name": "江北****溪网吧",
        "lng": "106.587072",
        "lat": "29.627076",
        "value": 325
    },
    "50010510000035": {
        "name": "江北****电网吧",
        "lng": "106.474429",
        "lat": "29.590811",
        "value": 1324
    },
    "50010510000036": {
        "name": "江北****会所",
        "lng": "106.541744",
        "lat": "29.578279",
        "value": 1178
    },
    "50010510000037": {
        "name": "江北****吉网吧",
        "lng": "106.543482",
        "lat": "29.571278",
        "value": 558
    },
    "50010510000038": {
        "name": "江北****捷网吧",
        "lng": "106.652931",
        "lat": "29.603546",
        "value": 386
    },
    "50010910000034": {
        "name": "重庆****由网吧",
        "lng": "106.442637",
        "lat": "29.828045",
        "value": 876
    },
    "50010910000036": {
        "name": "重庆****虫网吧",
        "lng": "106.392288",
        "lat": "29.877312",
        "value": 229
    },
    "50010910000038": {
        "name": "重庆****妹网吧",
        "lng": "106.442947",
        "lat": "29.830823",
        "value": 304
    },
    "50010910000042": {
        "name": "重庆****龙网吧",
        "lng": "106.450729",
        "lat": "29.82996",
        "value": 394
    },
    "50010910000044": {
        "name": "重庆****潮网吧",
        "lng": "106.502552",
        "lat": "29.734802",
        "value": 118
    },
    "50010910000049": {
        "name": "重庆****中网吧",
        "lng": "106.441196",
        "lat": "29.834585",
        "value": 20
    },
    "50010910000050": {
        "name": "重庆****嘉网吧",
        "lng": "106.670929",
        "lat": "30.030376",
        "value": 354
    },
    "50010910000053": {
        "name": "东梅****经营",
        "lng": "106.448526",
        "lat": "29.831696",
        "value": 603
    },
    "50010910000054": {
        "name": "重庆****静网吧",
        "lng": "106.572192",
        "lat": "29.897784",
        "value": 245
    },
    "50010910000056": {
        "name": "重庆****乐网吧",
        "lng": "106.448394",
        "lat": "29.823838",
        "value": 166
    },
    "50010910000062": {
        "name": "重庆****恋网吧",
        "lng": "106.42906",
        "lat": "29.820927",
        "value": 4255
    },
    "50010910000063": {
        "name": "重庆****龙网吧",
        "lng": "106.440656",
        "lat": "29.815665",
        "value": 769
    },
    "50010910000064": {
        "name": "重庆****度网吧",
        "lng": "106.413759",
        "lat": "29.806278",
        "value": 316
    },
    "50010910000065": {
        "name": "重庆****新网吧",
        "lng": "106.443925",
        "lat": "29.826227",
        "value": 718
    },
    "50010910000067": {
        "name": "重庆****品网吧",
        "lng": "106.430452",
        "lat": "29.838354",
        "value": 630
    },
    "50010910000068": {
        "name": "重庆****建网吧",
        "lng": "106.410182",
        "lat": "29.81418",
        "value": 363
    },
    "50010910000071": {
        "name": "重庆****韵网吧",
        "lng": "106.508537",
        "lat": "29.788827",
        "value": 831
    },
    "50010910000073": {
        "name": "北碚****点网吧",
        "lng": "106.446225",
        "lat": "29.832348",
        "value": 432
    },
    "50010910000074": {
        "name": "重庆****街网吧",
        "lng": "106.441196",
        "lat": "29.834535",
        "value": 270
    },
    "50010910000080": {
        "name": "重庆****涛网吧",
        "lng": "106.480218",
        "lat": "29.737903",
        "value": 702
    },
    "50010910000081": {
        "name": "重庆****城网吧",
        "lng": "106.522895",
        "lat": "29.819772",
        "value": 251
    },
    "50010910000082": {
        "name": "重庆****兴网吧",
        "lng": "106.508537",
        "lat": "29.788827",
        "value": 318
    },
    "50010910000084": {
        "name": "重庆****琴网吧",
        "lng": "106.430698",
        "lat": "29.838364",
        "value": 274
    },
    "50010910000087": {
        "name": "重庆****平网吧",
        "lng": "106.398786",
        "lat": "29.809628",
        "value": 578
    },
    "50010910000096": {
        "name": "重庆****浩网吧",
        "lng": "106.410495",
        "lat": "29.805705",
        "value": 818
    },
    "50010910000097": {
        "name": "重庆****驿网吧",
        "lng": "106.439903",
        "lat": "29.819343",
        "value": 233
    },
    "50010910000098": {
        "name": "重庆****泰网吧",
        "lng": "106.383755",
        "lat": "29.785899",
        "value": 213
    },
    "50010910000100": {
        "name": "重庆****源网吧",
        "lng": "106.611351",
        "lat": "29.958383",
        "value": 72
    },
    "50010910000102": {
        "name": "重庆****海网吧",
        "lng": "106.430171",
        "lat": "29.822154",
        "value": 1672
    },
    "50010910000103": {
        "name": "重庆****利网吧",
        "lng": "106.574933",
        "lat": "29.901352",
        "value": 100
    },
    "50010710000281": {
        "name": "重庆****程网吧",
        "lng": "106.320355",
        "lat": "29.525043",
        "value": 312
    },
    "50010710000282": {
        "name": "九龙****族网吧",
        "lng": "106.451019",
        "lat": "29.461671",
        "value": 246
    },
    "50010710000283": {
        "name": "重庆****城网吧",
        "lng": "106.386778",
        "lat": "29.513828",
        "value": 754
    },
    "50010810000001": {
        "name": "南岸****洞网吧",
        "lng": "106.574815",
        "lat": "29.530606",
        "value": 563
    },
    "50010810000002": {
        "name": "南岸****蛛网吧",
        "lng": "106.644778",
        "lat": "29.502854",
        "value": 803
    },
    "50010810000003": {
        "name": "南岸****网吧",
        "lng": "106.587115",
        "lat": "29.511136",
        "value": 2120
    },
    "50010810000005": {
        "name": "南岸****网网吧",
        "lng": "106.601894",
        "lat": "29.556657",
        "value": 699
    },
    "50010810000007": {
        "name": "南岸****属网吧",
        "lng": "106.59714",
        "lat": "29.589038",
        "value": 297
    },
    "50010810000009": {
        "name": "南岸****耕网吧",
        "lng": "106.581537",
        "lat": "29.519466",
        "value": 383
    },
    "50010810000010": {
        "name": "南岸****浪网吧",
        "lng": "106.579565",
        "lat": "29.507162",
        "value": 1341
    },
    "50010810000041": {
        "name": "南岸****威夷",
        "lng": "106.608987",
        "lat": "29.605391",
        "value": 1183
    },
    "50010810000043": {
        "name": "南岸****狐网吧",
        "lng": "106.564497",
        "lat": "29.532705",
        "value": 1387
    },
    "50010810000044": {
        "name": "南岸****诚网吧",
        "lng": "106.6555",
        "lat": "29.482309",
        "value": 446
    },
    "50010810000045": {
        "name": "南岸****网吧",
        "lng": "106.610219",
        "lat": "29.538749",
        "value": 695
    },
    "50010810000047": {
        "name": "南岸****亮网吧",
        "lng": "106.556294",
        "lat": "29.526676",
        "value": 1513
    },
    "50010810000049": {
        "name": "南岸****辉网吧",
        "lng": "106.572512",
        "lat": "29.529902",
        "value": 543
    },
    "50010810000050": {
        "name": "南岸****网网吧",
        "lng": "106.597781",
        "lat": "29.587322",
        "value": 780
    },
    "50010810000052": {
        "name": "重庆****任公司",
        "lng": "106.581708",
        "lat": "29.521046",
        "value": 1084
    },
    "50010810000053": {
        "name": "南岸****路网吧",
        "lng": "106.577191",
        "lat": "29.531792",
        "value": 449
    },
    "50010810000055": {
        "name": "南岸****荷网吧",
        "lng": "106.575808",
        "lat": "29.530528",
        "value": 128
    },
    "50010810000056": {
        "name": "南岸****栈网吧",
        "lng": "106.587115",
        "lat": "29.511136",
        "value": 504
    },
    "50010810000058": {
        "name": "南岸****色网吧",
        "lng": "106.607834",
        "lat": "29.584046",
        "value": 33
    },
    "50010810000059": {
        "name": "南岸****网网吧",
        "lng": "106.60623",
        "lat": "29.583889",
        "value": 541
    },
    "50010810000060": {
        "name": "南岸****网吧 ",
        "lng": "106.556294",
        "lat": "29.526676",
        "value": 1149
    },
    "50010810000061": {
        "name": "南岸****速网吧",
        "lng": "106.567653",
        "lat": "29.527459",
        "value": 42
    },
    "50010810000062": {
        "name": "南岸****恋网吧",
        "lng": "106.57254",
        "lat": "29.530635",
        "value": 616
    },
    "50010810000063": {
        "name": "南岸****影网吧",
        "lng": "106.575835",
        "lat": "29.529493",
        "value": 907
    },
    "50010810000064": {
        "name": "南岸****立网吧",
        "lng": "106.574919",
        "lat": "29.535221",
        "value": 195
    },
    "50010810000066": {
        "name": "南岸****成网吧",
        "lng": "106.564201",
        "lat": "29.530528",
        "value": 858
    },
    "50010810000067": {
        "name": "南岸****怡网吧",
        "lng": "106.619577",
        "lat": "29.59132",
        "value": 214
    },
    "50010810000068": {
        "name": "南岸****量网吧",
        "lng": "106.609073",
        "lat": "29.60761",
        "value": 696
    },
    "50010810000069": {
        "name": "南岸****网吧",
        "lng": "106.585165",
        "lat": "29.543042",
        "value": 957
    },
    "50010810000070": {
        "name": "南岸****网吧",
        "lng": "106.601743",
        "lat": "29.553189",
        "value": 408
    },
    "50010810000071": {
        "name": "南岸****点网吧",
        "lng": "106.581188",
        "lat": "29.501284",
        "value": 2826
    },
    "50010810000072": {
        "name": "南岸****骏网吧",
        "lng": "106.573597",
        "lat": "29.53572",
        "value": 1142
    },
    "50010810000075": {
        "name": "南岸****取缔",
        "lng": "106.574922",
        "lat": "29.538492",
        "value": 956
    },
    "50010810000076": {
        "name": "南岸****浪网吧",
        "lng": "106.574773",
        "lat": "29.529781",
        "value": 787
    },
    "50010810000077": {
        "name": "南岸****园网吧",
        "lng": "106.581188",
        "lat": "29.501284",
        "value": 87
    },
    "50010810000078": {
        "name": "知了****取缔",
        "lng": "106.574836",
        "lat": "29.538287",
        "value": 1996
    },
    "50010810000079": {
        "name": "南岸****鸟网吧",
        "lng": "106.601296",
        "lat": "29.553887",
        "value": 859
    },
    "50010810000081": {
        "name": "南岸****爱网吧",
        "lng": "106.579257",
        "lat": "29.511756",
        "value": 262
    },
    "50010710000066": {
        "name": "重庆****功网吧",
        "lng": "106.549765",
        "lat": "29.495752",
        "value": 2066
    },
    "50010710000068": {
        "name": "重庆****阁网吧",
        "lng": "106.508805",
        "lat": "29.522412",
        "value": 476
    },
    "50010710000070": {
        "name": "重庆****鑫网吧",
        "lng": "106.508144",
        "lat": "29.52144",
        "value": 125
    },
    "50010710000074": {
        "name": "重庆****标网吧",
        "lng": "106.36284",
        "lat": "29.499851",
        "value": 682
    },
    "50010710000076": {
        "name": "九龙****玛网吧",
        "lng": "106.525567",
        "lat": "29.537758",
        "value": 912
    },
    "50010710000079": {
        "name": "九龙****网吧)",
        "lng": "106.520342",
        "lat": "29.509816",
        "value": 825
    },
    "50010710000080": {
        "name": "亚联****月网吧",
        "lng": "106.495322",
        "lat": "29.513101",
        "value": 985
    },
    "50010710000083": {
        "name": "重庆****宇网吧",
        "lng": "106.548927",
        "lat": "29.497039",
        "value": 1851
    },
    "50010710000084": {
        "name": "重庆****美网吧",
        "lng": "106.452305",
        "lat": "29.502131",
        "value": 649
    },
    "50010710000085": {
        "name": "重庆****淇网吧",
        "lng": "106.516539",
        "lat": "29.517971",
        "value": 241
    },
    "50010710000087": {
        "name": "重庆****拉网吧",
        "lng": "106.45868",
        "lat": "29.476013",
        "value": 1069
    },
    "50010710000090": {
        "name": "重庆****返网吧",
        "lng": "106.479966",
        "lat": "29.507913",
        "value": 1080
    },
    "50010710000091": {
        "name": "九龙****文网吧",
        "lng": "106.452422",
        "lat": "29.452438",
        "value": 411
    },
    "50010710000093": {
        "name": "重庆****马网吧",
        "lng": "106.37408",
        "lat": "29.525247",
        "value": 527
    },
    "50010710000098": {
        "name": "重庆****兰网吧",
        "lng": "106.332994",
        "lat": "29.426535",
        "value": 531
    },
    "50010710000099": {
        "name": "重庆****松网吧",
        "lng": "106.392398",
        "lat": "29.302119",
        "value": 316
    },
    "50010710000103": {
        "name": "重庆****都网吧",
        "lng": "106.371596",
        "lat": "29.528703",
        "value": 915
    },
    "50010710000107": {
        "name": "重庆****和网吧",
        "lng": "106.449095",
        "lat": "29.504581",
        "value": 574
    },
    "50010710000108": {
        "name": "重庆****兰网吧",
        "lng": "106.378409",
        "lat": "29.524129",
        "value": 959
    },
    "50010710000110": {
        "name": "重庆****香网吧",
        "lng": "106.458009",
        "lat": "29.47892",
        "value": 133
    },
    "50010710000112": {
        "name": "九龙****会所)",
        "lng": "#N/A",
        "lat": "#N/A",
        "value": 1020
    },
    "50010710000113": {
        "name": "重庆****名网吧",
        "lng": "106.511142",
        "lat": "29.520944",
        "value": 653
    },
    "50010710000114": {
        "name": "重庆****恒网吧",
        "lng": "106.492891",
        "lat": "29.499465",
        "value": 459
    },
    "50010710000116": {
        "name": "九龙****果网吧",
        "lng": "106.439509",
        "lat": "29.466708",
        "value": 177
    },
    "50010710000122": {
        "name": "九龙****川网吧",
        "lng": "106.445727",
        "lat": "29.482056",
        "value": 679
    },
    "50010710000124": {
        "name": "重庆****友网吧",
        "lng": "106.448232",
        "lat": "29.455581",
        "value": 1067
    },
    "50010710000126": {
        "name": "重庆****义网吧",
        "lng": "106.377337",
        "lat": "29.524027",
        "value": 411
    },
    "50010710000129": {
        "name": "九龙****兰网吧",
        "lng": "106.50881",
        "lat": "29.517981",
        "value": 645
    },
    "50010710000132": {
        "name": "九龙****（换",
        "lng": "106.521012",
        "lat": "29.512654",
        "value": 1590
    },
    "50010710000134": {
        "name": "九龙****动力)",
        "lng": "106.523199",
        "lat": "29.518132",
        "value": 446
    },
    "50010710000137": {
        "name": "重庆****天网吧",
        "lng": "106.517708",
        "lat": "29.519552",
        "value": 1404
    },
    "50010710000138": {
        "name": "重庆****码网吧",
        "lng": "106.48175",
        "lat": "29.51025",
        "value": 865
    },
    "50010710000139": {
        "name": "九龙****聚网吧",
        "lng": "106.439796",
        "lat": "29.46722",
        "value": 513
    },
    "50010710000140": {
        "name": "重庆****双网吧",
        "lng": "106.516539",
        "lat": "29.517971",
        "value": 782
    },
    "50010710000141": {
        "name": "九龙****门网吧",
        "lng": "106.521765",
        "lat": "29.518745",
        "value": 564
    },
    "50010810000121": {
        "name": "南岸****博网吧",
        "lng": "106.681404",
        "lat": "29.536002",
        "value": 815
    },
    "50010810000122": {
        "name": "南岸****上网吧",
        "lng": "106.568115",
        "lat": "29.519136",
        "value": 473
    },
    "50010810000123": {
        "name": "南岸****竹网吧",
        "lng": "106.61007",
        "lat": "29.539026",
        "value": 2898
    },
    "50010810000125": {
        "name": "南岸****塘网吧",
        "lng": "106.576315",
        "lat": "29.535142",
        "value": 788
    },
    "50010810000126": {
        "name": "南岸****束网吧",
        "lng": "106.60088",
        "lat": "29.586318",
        "value": 313
    },
    "50010810000127": {
        "name": "南岸****禾网吧",
        "lng": "106.61027",
        "lat": "29.538893",
        "value": 1145
    },
    "50010810000134": {
        "name": "南岸****网苑",
        "lng": "106.595523",
        "lat": "29.54941",
        "value": 912
    },
    "50010810000135": {
        "name": "南岸****林网吧",
        "lng": "106.57359",
        "lat": "29.539111",
        "value": 449
    },
    "50010810000136": {
        "name": "南岸****宇网吧",
        "lng": "106.578224",
        "lat": "29.491126",
        "value": 1648
    },
    "50010810000137": {
        "name": "南岸****成网吧",
        "lng": "106.531832",
        "lat": "29.575575",
        "value": 675
    },
    "50010810000141": {
        "name": "南岸****战网吧",
        "lng": "106.594659",
        "lat": "29.549126",
        "value": 1499
    },
    "50010810000148": {
        "name": "南岸****棠网吧",
        "lng": "106.587997",
        "lat": "29.543872",
        "value": 231
    },
    "50010810000149": {
        "name": "南岸****网吧",
        "lng": "106.58436",
        "lat": "29.518867",
        "value": 897
    },
    "50010810000150": {
        "name": "南岸****海网吧",
        "lng": "106.679655",
        "lat": "29.564075",
        "value": 1350
    },
    "50010810000151": {
        "name": "南岸****昌网城",
        "lng": "106.579347",
        "lat": "29.531086",
        "value": 690
    },
    "50010810000152": {
        "name": "南岸****虫网吧",
        "lng": "106.600701",
        "lat": "29.596027",
        "value": 1171
    },
    "50010810000156": {
        "name": "南岸****网苑",
        "lng": "106.608121",
        "lat": "29.583002",
        "value": 1219
    },
    "50010810000157": {
        "name": "南岸****家网吧",
        "lng": "",
        "lat": "",
        "value": 264
    },
    "50010810000158": {
        "name": "南岸****慧网吧",
        "lng": "106.648638",
        "lat": "29.492595",
        "value": 565
    },
    "50010810000159": {
        "name": "南岸****齐网吧",
        "lng": "106.608787",
        "lat": "29.58168",
        "value": 1406
    },
    "50010810000160": {
        "name": "南岸****纪网吧",
        "lng": "106.644778",
        "lat": "29.502854",
        "value": 1332
    },
    "50010810000161": {
        "name": "南岸****光网吧",
        "lng": "106.57446",
        "lat": "29.537205",
        "value": 1072
    },
    "50010810000162": {
        "name": "南岸****特网吧",
        "lng": "106.568638",
        "lat": "29.519279",
        "value": 970
    },
    "50010810000163": {
        "name": "南岸****狐网吧",
        "lng": "106.567598",
        "lat": "29.533011",
        "value": 947
    },
    "50010810000164": {
        "name": "南岸****网吧",
        "lng": "106.579516",
        "lat": "29.516339",
        "value": 499
    },
    "50010810000165": {
        "name": "南岸****林网吧",
        "lng": "106.57318",
        "lat": "29.506635",
        "value": 575
    },
    "50010810000166": {
        "name": "南岸****星网吧",
        "lng": "106.619194",
        "lat": "29.608599",
        "value": 776
    },
    "50010810000167": {
        "name": "南岸****约网吧",
        "lng": "106.610111",
        "lat": "29.605987",
        "value": 1041
    },
    "50010810000168": {
        "name": "南岸****桦网吧",
        "lng": "106.583029",
        "lat": "29.532134",
        "value": 85
    },
    "50010810000170": {
        "name": "南岸****英网吧",
        "lng": "106.598207",
        "lat": "29.586681",
        "value": 1161
    },
    "50010810000172": {
        "name": "南岸****边网吧",
        "lng": "106.590289",
        "lat": "29.546867",
        "value": 1378
    },
    "50010810000173": {
        "name": "南岸****欣网吧",
        "lng": "",
        "lat": "",
        "value": 789
    },
    "50010810000179": {
        "name": "南岸****春网吧",
        "lng": "106.572797",
        "lat": "29.534255",
        "value": 1533
    },
    "50010810000183": {
        "name": "南岸****联杰)",
        "lng": "106.560394",
        "lat": "29.534756",
        "value": 1404
    },
    "50010810000184": {
        "name": "南岸****网吧",
        "lng": "106.558829",
        "lat": "29.527255",
        "value": 1645
    },
    "50010810000187": {
        "name": "南岸****虫网吧",
        "lng": "106.577462",
        "lat": "29.53252",
        "value": 1337
    },
    "50010810000188": {
        "name": "南岸****念网吧",
        "lng": "106.581083",
        "lat": "29.527816",
        "value": 2098
    },
    "50010810000192": {
        "name": "南岸****商务吧",
        "lng": "106.569467",
        "lat": "29.529397",
        "value": 555
    },
    "50010810000193": {
        "name": "南岸****浪网吧",
        "lng": "106.587365",
        "lat": "29.544921",
        "value": 555
    },
    "50010810000194": {
        "name": "南岸****费点",
        "lng": "106.667178",
        "lat": "29.541515",
        "value": 935
    },
    "50010810000195": {
        "name": "南岸****费点",
        "lng": "106.57533",
        "lat": "29.535278",
        "value": 157
    },
    "50010810000196": {
        "name": "南岸****君网吧",
        "lng": "106.576783",
        "lat": "29.535496",
        "value": 390
    },
    "50010910000003": {
        "name": "重庆****喜网吧",
        "lng": "106.368689",
        "lat": "29.76208",
        "value": 174
    },
    "50010910000005": {
        "name": "重庆****风网吧",
        "lng": "106.447761",
        "lat": "29.83656",
        "value": 863
    },
    "50010910000006": {
        "name": "重庆****林网吧",
        "lng": "106.520342",
        "lat": "29.866596",
        "value": 438
    },
    "50010910000007": {
        "name": "重庆****乐网吧",
        "lng": "106.476109",
        "lat": "29.733421",
        "value": 220
    },
    "50010910000009": {
        "name": "重庆****轮网吧",
        "lng": "106.470484",
        "lat": "29.734228",
        "value": 624
    },
    "50010910000014": {
        "name": "北碚****网吧",
        "lng": "106.432918",
        "lat": "29.824954",
        "value": 737
    },
    "50010910000016": {
        "name": "重庆****东梅",
        "lng": "106.448526",
        "lat": "29.831696",
        "value": 957
    },
    "50010910000017": {
        "name": "重庆****腾网吧",
        "lng": "106.447836",
        "lat": "29.836579",
        "value": 426
    },
    "50010910000019": {
        "name": "重庆****翼网吧",
        "lng": "106.443627",
        "lat": "29.831265",
        "value": 305
    },
    "50010910000028": {
        "name": "重庆****清网吧",
        "lng": "106.559806",
        "lat": "29.776433",
        "value": 270
    },
    "50010910000031": {
        "name": "重庆****兆网吧",
        "lng": "106.414142",
        "lat": "29.807815",
        "value": 503
    },
    "50010710000013": {
        "name": "九龙****龙网吧",
        "lng": "106.319493",
        "lat": "29.545263",
        "value": 2069
    },
    "50010710000015": {
        "name": "重庆****义网吧",
        "lng": "106.370595",
        "lat": "29.434566",
        "value": 321
    },
    "50010710000018": {
        "name": "重庆****地网吧",
        "lng": "106.495722",
        "lat": "29.500366",
        "value": 1305
    },
    "50010710000019": {
        "name": "重庆****近网吧",
        "lng": "106.523333",
        "lat": "29.527181",
        "value": 488
    },
    "50010710000020": {
        "name": "重庆****来网吧",
        "lng": "106.376708",
        "lat": "29.496067",
        "value": 1610
    },
    "50010710000025": {
        "name": "九龙****龙网吧",
        "lng": "#N/A",
        "lat": "#N/A",
        "value": 75
    },
    "50010710000030": {
        "name": "重庆****辰网吧",
        "lng": "106.532809",
        "lat": "29.503394",
        "value": 1289
    },
    "50010710000031": {
        "name": "重庆****速网吧",
        "lng": "106.510826",
        "lat": "29.520297",
        "value": 1061
    },
    "50010710000032": {
        "name": "重庆****奇网吧",
        "lng": "106.544684",
        "lat": "29.4908",
        "value": 1331
    },
    "50010710000034": {
        "name": "重庆****晴网吧",
        "lng": "106.51212",
        "lat": "29.520752",
        "value": 1190
    },
    "50010710000035": {
        "name": "九龙****通网吧",
        "lng": "106.531894",
        "lat": "29.504369",
        "value": 361
    },
    "50010710000231": {
        "name": "九龙****克网吧",
        "lng": "106.519493",
        "lat": "29.514253",
        "value": 2113
    },
    "50010710000232": {
        "name": "重庆****格网吧",
        "lng": "106.332822",
        "lat": "29.303315",
        "value": 410
    },
    "50010710000233": {
        "name": "重庆****世网吧",
        "lng": "106.454108",
        "lat": "29.437699",
        "value": 694
    },
    "50010710000235": {
        "name": "重庆****城网吧",
        "lng": "106.333505",
        "lat": "29.303349",
        "value": 732
    },
    "50010710000237": {
        "name": "重庆****虎网吧",
        "lng": "106.456693",
        "lat": "29.4394",
        "value": 802
    },
    "50010710000238": {
        "name": "重庆****城网吧",
        "lng": "106.452422",
        "lat": "29.452438",
        "value": 1026
    },
    "50010710000243": {
        "name": "重庆****地网吧",
        "lng": "106.457267",
        "lat": "29.502444",
        "value": 1354
    },
    "50010710000244": {
        "name": "九龙****辉网吧",
        "lng": "106.441428",
        "lat": "29.486244",
        "value": 367
    },
    "50010710000245": {
        "name": "闲了****了网吧",
        "lng": "106.522122",
        "lat": "29.531825",
        "value": 593
    },
    "50010710000249": {
        "name": "重庆****鱼网吧",
        "lng": "106.480725",
        "lat": "29.509866",
        "value": 803
    },
    "50010710000254": {
        "name": "重庆****龙网吧",
        "lng": "106.40667",
        "lat": "29.510509",
        "value": 920
    },
    "50010710000255": {
        "name": "重庆****丰网吧",
        "lng": "106.380329",
        "lat": "29.509753",
        "value": 832
    },
    "50010710000256": {
        "name": "重庆****络会所",
        "lng": "106.514367",
        "lat": "29.505276",
        "value": 70
    },
    "50010710000257": {
        "name": "重庆****蜂网吧",
        "lng": "106.340757",
        "lat": "29.309896",
        "value": 205
    },
    "50010710000258": {
        "name": "亚联****文网吧",
        "lng": "106.532959",
        "lat": "29.505006",
        "value": 1309
    },
    "50010710000259": {
        "name": "重庆****九网吧",
        "lng": "106.379008",
        "lat": "29.54501",
        "value": 328
    },
    "50010610002002": {
        "name": "重庆****嘟网吧",
        "lng": "106.454099",
        "lat": "29.567892",
        "value": 939
    },
    "50010610002003": {
        "name": "重庆****鹊网吧",
        "lng": "106.460157",
        "lat": "29.571354",
        "value": 782
    },
    "50010610002004": {
        "name": "重庆****晖网吧",
        "lng": "106.465878",
        "lat": "29.569822",
        "value": 560
    },
    "50010610002005": {
        "name": "重庆****亚网吧",
        "lng": "106.465948",
        "lat": "29.569781",
        "value": 1327
    },
    "50010610002006": {
        "name": "重庆****缘网吧",
        "lng": "106.445461",
        "lat": "29.558154",
        "value": 1009
    },
    "50010610002007": {
        "name": "重庆****人网吧",
        "lng": "106.475053",
        "lat": "29.566524",
        "value": 778
    },
    "50010610002008": {
        "name": "重庆****斯网吧",
        "lng": "106.547949",
        "lat": "29.558616",
        "value": 1594
    },
    "50010610002009": {
        "name": "重庆****斯网吧",
        "lng": "106.309625",
        "lat": "29.608938",
        "value": 3388
    },
    "50010610002010": {
        "name": "重庆****程网吧",
        "lng": "106.467756",
        "lat": "29.568495",
        "value": 1078
    },
    "50010610002011": {
        "name": "重庆****友网吧",
        "lng": "106.467756",
        "lat": "29.568495",
        "value": 720
    },
    "50010610002012": {
        "name": "重庆****年网吧",
        "lng": "106.38273",
        "lat": "29.605393",
        "value": 2118
    },
    "50010610002013": {
        "name": "重庆****星网吧",
        "lng": "106.471915",
        "lat": "29.56812",
        "value": 361
    },
    "50010610002014": {
        "name": "重庆****素网吧",
        "lng": "106.472065",
        "lat": "29.567988",
        "value": 219
    },
    "50010610002017": {
        "name": "重庆****多网吧",
        "lng": "106.475803",
        "lat": "29.56603",
        "value": 864
    },
    "50010610002018": {
        "name": "沙坪****聊天室",
        "lng": "106.475241",
        "lat": "29.565616",
        "value": 1322
    },
    "50010610002020": {
        "name": "重庆****头网吧",
        "lng": "106.38686",
        "lat": "29.591882",
        "value": 2198
    },
    "50010610002021": {
        "name": "重庆****马网吧",
        "lng": "106.47948",
        "lat": "29.566935",
        "value": 2118
    },
    "50010510000155": {
        "name": "江北****络会所",
        "lng": "106.512103",
        "lat": "29.582468",
        "value": 1476
    },
    "50010510000156": {
        "name": "重庆****会所",
        "lng": "106.713615",
        "lat": "29.619318",
        "value": 1233
    },
    "50010510000157": {
        "name": "江北****会所",
        "lng": "106.538885",
        "lat": "29.590309",
        "value": 820
    },
    "50010510000168": {
        "name": "江北****帐号)",
        "lng": "106.535894",
        "lat": "29.58508",
        "value": 156
    },
    "50010610001001": {
        "name": "重庆****网吧",
        "lng": "106.382651",
        "lat": "29.591635",
        "value": 1237
    },
    "50010610001002": {
        "name": "重庆****进网吧",
        "lng": "106.384992",
        "lat": "29.6026",
        "value": 837
    },
    "50010610001005": {
        "name": "重庆****光网吧",
        "lng": "106.453061",
        "lat": "29.530251",
        "value": 871
    },
    "50010610001006": {
        "name": "重庆****狐网吧",
        "lng": "106.382812",
        "lat": "29.589748",
        "value": 300
    },
    "50010610001007": {
        "name": "重庆****儿网吧",
        "lng": "106.425927",
        "lat": "29.576926",
        "value": 482
    },
    "50010610001008": {
        "name": "重庆****海网吧",
        "lng": "106.479872",
        "lat": "29.565939",
        "value": 455
    },
    "50010610001009": {
        "name": "重庆****窗网吧",
        "lng": "106.449647",
        "lat": "29.577146",
        "value": 865
    },
    "50010610001010": {
        "name": "重庆****伊网城",
        "lng": "106.449632",
        "lat": "29.577232",
        "value": 377
    },
    "50010610001016": {
        "name": "重庆****藤网吧",
        "lng": "106.298642",
        "lat": "29.60147",
        "value": 1643
    },
    "50010610001017": {
        "name": "重庆****子网吧",
        "lng": "106.456015",
        "lat": "29.583801",
        "value": 877
    },
    "50010610001018": {
        "name": "重庆****网吧)",
        "lng": "106.453484",
        "lat": "29.57996",
        "value": 844
    },
    "50010710000142": {
        "name": "重庆****盈网吧",
        "lng": "106.333269",
        "lat": "29.304325",
        "value": 781
    },
    "50010710000143": {
        "name": "九龙****仁网吧",
        "lng": "106.529053",
        "lat": "29.514225",
        "value": 738
    },
    "50010710000144": {
        "name": "九龙****力网吧",
        "lng": "106.332822",
        "lat": "29.303315",
        "value": 855
    },
    "50010710000145": {
        "name": "重庆****兹网吧",
        "lng": "106.449095",
        "lat": "29.504581",
        "value": 585
    },
    "50010710000147": {
        "name": "重庆****桃网吧",
        "lng": "106.356642",
        "lat": "29.380042",
        "value": 724
    },
    "50010710000149": {
        "name": "重庆****天网吧",
        "lng": "106.457267",
        "lat": "29.502444",
        "value": 630
    },
    "50010710000150": {
        "name": "重庆****空网吧",
        "lng": "106.337798",
        "lat": "29.418527",
        "value": 548
    },
    "50010710000154": {
        "name": "九龙****行网吧",
        "lng": "106.451843",
        "lat": "29.470456",
        "value": 408
    },
    "50010710000157": {
        "name": "重庆****宇网吧",
        "lng": "106.487811",
        "lat": "29.503127",
        "value": 1010
    },
    "50010710000159": {
        "name": "九龙****杨网吧",
        "lng": "106.534358",
        "lat": "29.513451",
        "value": 887
    },
    "50010710000160": {
        "name": "九龙****宇网吧",
        "lng": "106.451843",
        "lat": "29.470456",
        "value": 379
    },
    "50010710000161": {
        "name": "九龙****缘网吧",
        "lng": "106.514231",
        "lat": "29.514253",
        "value": 513
    },
    "50010710000162": {
        "name": "重庆****速网吧",
        "lng": "106.376536",
        "lat": "29.527193",
        "value": 592
    },
    "50010710000166": {
        "name": "重庆****悦网吧",
        "lng": "106.404565",
        "lat": "29.509022",
        "value": 747
    },
    "50010710000168": {
        "name": "重庆****乐网吧",
        "lng": "106.523672",
        "lat": "29.52285",
        "value": 311
    },
    "50010710000170": {
        "name": "重庆****网吧",
        "lng": "106.52098",
        "lat": "29.531429",
        "value": 457
    },
    "50010710000171": {
        "name": "重庆****梦网吧",
        "lng": "106.375962",
        "lat": "29.525973",
        "value": 935
    },
    "50010710000174": {
        "name": "重庆****来网吧",
        "lng": "106.375103",
        "lat": "29.525837",
        "value": 914
    },
    "50010710000175": {
        "name": "重庆****三网吧",
        "lng": "106.508144",
        "lat": "29.52144",
        "value": 272
    },
    "50010710000176": {
        "name": "重庆****珊网吧",
        "lng": "106.379008",
        "lat": "29.54501",
        "value": 291
    },
    "50010610002026": {
        "name": "沙坪****倶乐部",
        "lng": "106.467013",
        "lat": "29.568896",
        "value": 1410
    },
    "50010610002030": {
        "name": "重庆****嘟网吧",
        "lng": "106.454099",
        "lat": "29.567892",
        "value": 1138
    },
    "50010610002032": {
        "name": "重庆****浪网吧",
        "lng": "106.466795",
        "lat": "29.563966",
        "value": 760
    },
    "50010610002033": {
        "name": "重庆****力网吧",
        "lng": "106.464144",
        "lat": "29.564817",
        "value": 1046
    },
    "50010610002035": {
        "name": "重庆****浪网城",
        "lng": "106.464281",
        "lat": "29.564685",
        "value": 2264
    },
    "50010610002036": {
        "name": "重庆****费点)",
        "lng": "106.464281",
        "lat": "29.564685",
        "value": 241
    },
    "50010610002038": {
        "name": "沙坪****E家)",
        "lng": "106.467729",
        "lat": "29.561356",
        "value": 2315
    },
    "50010610002049": {
        "name": "重庆****费点)",
        "lng": "106.464539",
        "lat": "29.564597",
        "value": 475
    },
    "50010610002051": {
        "name": "重庆****春网吧",
        "lng": "106.467359",
        "lat": "29.568676",
        "value": 313
    },
    "50010610002065": {
        "name": "重庆****力网吧",
        "lng": "106.469907",
        "lat": "29.561804",
        "value": 1177
    },
    "50010610002067": {
        "name": "沙坪****会所",
        "lng": "106.465741",
        "lat": "29.563825",
        "value": 2774
    },
    "50010610002041": {
        "name": "重庆****费点)",
        "lng": "106.464281",
        "lat": "29.564685",
        "value": 1832
    },
    "50010610002070": {
        "name": "重庆****东网吧",
        "lng": "106.470923",
        "lat": "29.564321",
        "value": 568
    },
    "50010610002071": {
        "name": "重庆****散网吧",
        "lng": "106.470923",
        "lat": "29.564321",
        "value": 612
    },
    "50010610002072": {
        "name": "重庆****通网吧",
        "lng": "106.464694",
        "lat": "29.560703",
        "value": 2799
    },
    "50010610002077": {
        "name": "沙坪****俱乐部",
        "lng": "106.46883",
        "lat": "29.570358",
        "value": 1879
    },
    "50010610002079": {
        "name": "沙坪****网苑)",
        "lng": "106.46516",
        "lat": "29.576901",
        "value": 70
    },
    "50010610002090": {
        "name": "重庆****限公司",
        "lng": "106.474633",
        "lat": "29.568561",
        "value": 1407
    },
    "50010610002091": {
        "name": "重庆****钇网吧",
        "lng": "106.465099",
        "lat": "29.577011",
        "value": 805
    },
    "50010610002092": {
        "name": "重庆****网吧)",
        "lng": "106.463762",
        "lat": "29.578909",
        "value": 1378
    },
    "50010610002093": {
        "name": "沙坪****乙网吧",
        "lng": "106.381331",
        "lat": "29.598058",
        "value": 739
    },
    "50010610002094": {
        "name": "重庆****隼网吧",
        "lng": "106.463724",
        "lat": "29.578895",
        "value": 662
    },
    "50010610002096": {
        "name": "重庆****网吧)",
        "lng": "106.4618",
        "lat": "29.567251",
        "value": 902
    },
    "50010610002097": {
        "name": "重庆****丁网吧",
        "lng": "106.46614",
        "lat": "29.562578",
        "value": 1338
    },
    "50010610004001": {
        "name": "重庆****闲网吧",
        "lng": "106.374805",
        "lat": "29.630548",
        "value": 389
    },
    "50010610004003": {
        "name": "重庆****双网吧",
        "lng": "106.315089",
        "lat": "29.626792",
        "value": 713
    },
    "50010610004004": {
        "name": "重庆****梦网吧",
        "lng": "106.46257",
        "lat": "29.552288",
        "value": 1238
    },
    "50010610004007": {
        "name": "重庆****月网吧",
        "lng": "106.338752",
        "lat": "29.62508",
        "value": 700
    },
    "50010610004008": {
        "name": "重庆****福网吧",
        "lng": "106.470582",
        "lat": "29.55711",
        "value": 2099
    },
    "50010610004009": {
        "name": "重庆****坤网吧",
        "lng": "106.47841",
        "lat": "29.546921",
        "value": 826
    },
    "50010610004011": {
        "name": "沙坪****锦网吧",
        "lng": "106.47706",
        "lat": "29.544767",
        "value": 1405
    },
    "50010710000260": {
        "name": "重庆****直营店",
        "lng": "106.377437",
        "lat": "29.49606",
        "value": 642
    },
    "50011210000039": {
        "name": "渝北****天网吧",
        "lng": "106.634817",
        "lat": "29.722978",
        "value": 389
    },
    "50011210000040": {
        "name": "渝北****意网吧",
        "lng": "106.641375",
        "lat": "29.774673",
        "value": 501
    },
    "50011210000041": {
        "name": "渝北****都网吧",
        "lng": "106.643407",
        "lat": "29.775949",
        "value": 738
    },
    "50011210000042": {
        "name": "渝北****虹网吧",
        "lng": "106.614762",
        "lat": "29.674415",
        "value": 912
    },
    "50011210000043": {
        "name": "渝北****域网吧",
        "lng": "106.526028",
        "lat": "29.594501",
        "value": 1255
    },
    "50011210000044": {
        "name": "渝北****高网吧",
        "lng": "106.519078",
        "lat": "29.589901",
        "value": 1790
    },
    "50011210000045": {
        "name": "渝北****纪网吧",
        "lng": "106.515108",
        "lat": "29.584731",
        "value": 508
    },
    "50011210000046": {
        "name": "渝北****洋网吧",
        "lng": "106.640031",
        "lat": "29.726312",
        "value": 1423
    },
    "50011210000047": {
        "name": "渝北****庆网吧",
        "lng": "106.518621",
        "lat": "29.596609",
        "value": 615
    },
    "50011210000048": {
        "name": "渝北****纪网吧",
        "lng": "106.522728",
        "lat": "29.604798",
        "value": 689
    },
    "50011210000049": {
        "name": "渝北****登网吧",
        "lng": "106.805209",
        "lat": "29.708229",
        "value": 279
    },
    "50011210000050": {
        "name": "渝北****福网吧",
        "lng": "106.802464",
        "lat": "29.705344",
        "value": 296
    },
    "50010710000263": {
        "name": "重庆****五网吧",
        "lng": "106.487811",
        "lat": "29.503127",
        "value": 1562
    },
    "50010710000266": {
        "name": "重庆****西网吧",
        "lng": "106.371775",
        "lat": "29.489477",
        "value": 545
    },
    "50010710000269": {
        "name": "重庆****云网吧",
        "lng": "106.548349",
        "lat": "29.497311",
        "value": 1117
    },
    "50010710000270": {
        "name": "重庆****龙网吧",
        "lng": "106.457267",
        "lat": "29.502444",
        "value": 1202
    },
    "50010710000272": {
        "name": "九龙****岩网城",
        "lng": "106.457267",
        "lat": "29.502444",
        "value": 883
    },
    "50010710000274": {
        "name": "亚联****寺网吧",
        "lng": "106.451843",
        "lat": "29.470456",
        "value": 219
    },
    "50010710000278": {
        "name": "九龙****诺网吧",
        "lng": "106.506186",
        "lat": "29.5227",
        "value": 845
    },
    "50010710000280": {
        "name": "韵龙****网吧",
        "lng": "106.520735",
        "lat": "29.514652",
        "value": 779
    },
    "50010710000036": {
        "name": "九龙****湾网吧",
        "lng": "106.517102",
        "lat": "29.512986",
        "value": 800
    },
    "50010710000039": {
        "name": "重庆****实网吧",
        "lng": "106.337266",
        "lat": "29.416812",
        "value": 496
    },
    "50010710000040": {
        "name": "重庆****友网吧",
        "lng": "106.543204",
        "lat": "29.491126",
        "value": 497
    },
    "50010710000041": {
        "name": "九龙****南网吧",
        "lng": "106.352045",
        "lat": "29.418944",
        "value": 598
    },
    "50010710000042": {
        "name": "九龙****慧星)",
        "lng": "106.508805",
        "lat": "29.522412",
        "value": 749
    },
    "50010710000043": {
        "name": "重庆****地网吧",
        "lng": "106.544426",
        "lat": "29.490765",
        "value": 312
    },
    "50010710000047": {
        "name": "重庆****利网吧",
        "lng": "106.549455",
        "lat": "29.498446",
        "value": 525
    },
    "50010710000048": {
        "name": "重庆****宽网吧",
        "lng": "106.517708",
        "lat": "29.519552",
        "value": 882
    },
    "50010710000057": {
        "name": "九龙****赫网吧",
        "lng": "106.518437",
        "lat": "29.508676",
        "value": 836
    },
    "50010710000058": {
        "name": "九龙****城网吧",
        "lng": "106.51611",
        "lat": "29.518167",
        "value": 473
    },
    "50010710000060": {
        "name": "重庆****间网吧",
        "lng": "106.523463",
        "lat": "29.520459",
        "value": 1665
    },
    "50010710000061": {
        "name": "重庆****斯网吧",
        "lng": "106.549765",
        "lat": "29.495752",
        "value": 1716
    },
    "50010710000065": {
        "name": "重庆****斯网吧",
        "lng": "106.332762",
        "lat": "29.303316",
        "value": 736
    },
    "50011210000103": {
        "name": "渝北****季网吧",
        "lng": "106.626706",
        "lat": "29.708929",
        "value": 236
    },
    "50011210000106": {
        "name": "渝北****上网吧",
        "lng": "106.635364",
        "lat": "29.712954",
        "value": 671
    },
    "50011210000107": {
        "name": "渝北****明网吧",
        "lng": "106.939437",
        "lat": "29.734327",
        "value": 374
    },
    "50011210000081": {
        "name": "渝北****河网吧",
        "lng": "106.627849",
        "lat": "29.710365",
        "value": 137
    },
    "50011210000082": {
        "name": "渝北****间网吧",
        "lng": "",
        "lat": "",
        "value": 1254
    },
    "50011210000083": {
        "name": "渝北****侠网吧",
        "lng": "106.62991",
        "lat": "29.713503",
        "value": 226
    },
    "50011210000084": {
        "name": "渝北****蛙网吧",
        "lng": "106.511609",
        "lat": "29.59251",
        "value": 981
    },
    "50011210000085": {
        "name": "渝北****译网吧",
        "lng": "106.617288",
        "lat": "29.672183",
        "value": 391
    },
    "50011210000086": {
        "name": "渝北****铁网吧",
        "lng": "106.602428",
        "lat": "29.693078",
        "value": 892
    },
    "50011210000087": {
        "name": "渝北****兴网吧",
        "lng": "106.601731",
        "lat": "29.685629",
        "value": 679
    },
    "50011210000088": {
        "name": "渝北****友网吧",
        "lng": "106.613003",
        "lat": "29.682224",
        "value": 987
    },
    "50011210000089": {
        "name": "渝北****豆网吧",
        "lng": "106.636979",
        "lat": "29.726832",
        "value": 536
    },
    "50011210000090": {
        "name": "渝北****亚网吧",
        "lng": "106.643407",
        "lat": "29.775949",
        "value": 588
    },
    "50011210000135": {
        "name": "渝北****霞网吧",
        "lng": "106.610562",
        "lat": "29.69237",
        "value": 711
    },
    "50015310000032": {
        "name": "北部****星网吧",
        "lng": "106.557083",
        "lat": "29.613047",
        "value": 575
    },
    "50015310000033": {
        "name": "北部****朵网吧",
        "lng": "106.209382",
        "lat": "29.284954",
        "value": 766
    },
    "50015310000034": {
        "name": "北部****视网吧",
        "lng": "106.588446",
        "lat": "29.058154",
        "value": 929
    },
    "50015310000035": {
        "name": "北部****人网吧",
        "lng": "108.712823",
        "lat": "30.942818",
        "value": 1123
    },
    "50015310000038": {
        "name": "北部****森网吧",
        "lng": "106.564686",
        "lat": "29.662242",
        "value": 824
    },
    "50015310000039": {
        "name": "北部****色网吧",
        "lng": "106.548475",
        "lat": "29.633175",
        "value": 727
    },
    "50099910000001": {
        "name": "重庆****部专用",
        "lng": "106.530635",
        "lat": "29.544606",
        "value": 8
    },
    "50010710000267": {
        "name": "九龙****鲁网吧",
        "lng": "106.522134",
        "lat": "29.518679",
        "value": 992
    },
    "50023310000005": {
        "name": "忠县****间网吧",
        "lng": "108.051424",
        "lat": "30.306022",
        "value": 904
    },
    "50023310000007": {
        "name": "忠县****天网吧",
        "lng": "107.732723",
        "lat": "30.308146",
        "value": 27
    },
    "50023310000008": {
        "name": "忠县****客网吧",
        "lng": "108.047822",
        "lat": "30.299137",
        "value": 461
    },
    "50023310000012": {
        "name": "忠县****浪网吧",
        "lng": "108.038688",
        "lat": "30.298155",
        "value": 216
    },
    "50023310000013": {
        "name": "忠县****河网吧",
        "lng": "108.079132",
        "lat": "30.501489",
        "value": 61
    },
    "50023310000014": {
        "name": "忠县****网络屋",
        "lng": "107.747255",
        "lat": "30.398017",
        "value": 17
    },
    "50011310000139": {
        "name": "巴南****林网吧",
        "lng": "106.556211",
        "lat": "29.44473",
        "value": 537
    },
    "50011310000152": {
        "name": "巴南****件狗",
        "lng": "106.568173",
        "lat": "29.475686",
        "value": 614
    },
    "50011310000153": {
        "name": "巴南****牛网吧",
        "lng": "106.56994",
        "lat": "29.48113",
        "value": 165
    },
    "50011310000154": {
        "name": "巴南****件狗",
        "lng": "106.530702",
        "lat": "29.387195",
        "value": 256
    },
    "50010710000180": {
        "name": "重庆****铭网吧",
        "lng": "106.510217",
        "lat": "29.523091",
        "value": 585
    },
    "50010710000183": {
        "name": "重庆****缘网吧",
        "lng": "106.521352",
        "lat": "29.523984",
        "value": 359
    },
    "50010710000186": {
        "name": "重庆****特网吧",
        "lng": "106.526199",
        "lat": "29.515455",
        "value": 1469
    },
    "50010710000187": {
        "name": "九龙****创网吧",
        "lng": "106.509363",
        "lat": "29.502438",
        "value": 801
    },
    "50010710000188": {
        "name": "九龙****变网吧",
        "lng": "106.451843",
        "lat": "29.470456",
        "value": 597
    },
    "50010710000189": {
        "name": "九龙****轩网吧",
        "lng": "106.439754",
        "lat": "29.46582",
        "value": 546
    },
    "50010710000191": {
        "name": "重庆****尚网吧",
        "lng": "106.319625",
        "lat": "29.524338",
        "value": 1631
    },
    "50010710000192": {
        "name": "九龙****唐网吧",
        "lng": "106.445727",
        "lat": "29.482056",
        "value": 265
    },
    "50010710000193": {
        "name": "九龙****力网吧",
        "lng": "106.511628",
        "lat": "29.503917",
        "value": 762
    },
    "50010710000194": {
        "name": "重庆****水网吧",
        "lng": "106.485752",
        "lat": "29.507146",
        "value": 1928
    },
    "50010710000195": {
        "name": "九龙****空网吧",
        "lng": "106.441875",
        "lat": "29.482449",
        "value": 597
    },
    "50010710000196": {
        "name": "重庆****天网吧",
        "lng": "106.339409",
        "lat": "29.307573",
        "value": 378
    },
    "50010710000198": {
        "name": "重庆****启网吧",
        "lng": "106.534958",
        "lat": "29.497749",
        "value": 256
    },
    "50010710000200": {
        "name": "九龙****艺网吧",
        "lng": "106.44672",
        "lat": "29.441744",
        "value": 62
    },
    "50010710000201": {
        "name": "九龙****健网吧",
        "lng": "106.517102",
        "lat": "29.512986",
        "value": 523
    },
    "50010710000206": {
        "name": "九龙****远网吧",
        "lng": "106.522868",
        "lat": "29.514767",
        "value": 674
    },
    "50010710000210": {
        "name": "重庆****亚网吧",
        "lng": "106.513309",
        "lat": "29.521119",
        "value": 387
    },
    "50010710000214": {
        "name": "重庆****都网吧",
        "lng": "106.352498",
        "lat": "29.367187",
        "value": 175
    },
    "50010710000215": {
        "name": "重庆****发网吧",
        "lng": "106.368589",
        "lat": "29.426607",
        "value": 321
    },
    "50010710000218": {
        "name": "九龙****和网吧",
        "lng": "#N/A",
        "lat": "#N/A",
        "value": 1427
    },
    "50010710000220": {
        "name": "重庆****禾网吧",
        "lng": "106.501352",
        "lat": "29.522882",
        "value": 672
    },
    "50010710000221": {
        "name": "重庆****克网吧",
        "lng": "106.455883",
        "lat": "29.501449",
        "value": 758
    },
    "50010710000222": {
        "name": "重庆****都网吧",
        "lng": "106.379063",
        "lat": "29.49789",
        "value": 700
    },
    "50010710000223": {
        "name": "重庆****达网吧",
        "lng": "106.587072",
        "lat": "29.627076",
        "value": 1186
    },
    "50010710000227": {
        "name": "九龙****网城",
        "lng": "106.517947",
        "lat": "29.514189",
        "value": 1480
    },
    "50010710000228": {
        "name": "九龙****逸网吧",
        "lng": "106.439765",
        "lat": "29.46719",
        "value": 485
    },
    "50010610009027": {
        "name": "沙区****柱网吧",
        "lng": "106.376866",
        "lat": "29.55731",
        "value": 392
    },
    "50010610009028": {
        "name": "沙坪****雨网吧",
        "lng": "106.344339",
        "lat": "29.621394",
        "value": 763
    },
    "50010610009032": {
        "name": "沙坪****闲会所",
        "lng": "106.337107",
        "lat": "29.626058",
        "value": 494
    },
    "50010610009033": {
        "name": "沙坪****网吧)",
        "lng": "106.307693",
        "lat": "29.608452",
        "value": 1607
    },
    "50010610009037": {
        "name": "重庆****力网吧",
        "lng": "106.309359",
        "lat": "29.558205",
        "value": 1471
    },
    "50010610009038": {
        "name": "重庆****居网吧",
        "lng": "106.313022",
        "lat": "29.563557",
        "value": 2027
    },
    "50010610009039": {
        "name": "重庆****珊网吧",
        "lng": "106.379624",
        "lat": "29.636179",
        "value": 1043
    },
    "50010610009040": {
        "name": "重庆****浪网吧",
        "lng": "106.374805",
        "lat": "29.630548",
        "value": 1415
    },
    "50010610009041": {
        "name": "重庆****日网吧",
        "lng": "106.310011",
        "lat": "29.555621",
        "value": 483
    },
    "50010610009045": {
        "name": "亚联****恋网城",
        "lng": "106.310827",
        "lat": "29.555739",
        "value": 2301
    },
    "50010610009046": {
        "name": "沙坪****鱼网吧",
        "lng": "106.312056",
        "lat": "29.585733",
        "value": 898
    },
    "50010610009047": {
        "name": "重庆****亮网吧",
        "lng": "106.33783",
        "lat": "29.627379",
        "value": 2071
    },
    "50010610009050": {
        "name": "重庆****品网吧",
        "lng": "106.316226",
        "lat": "29.68099",
        "value": 551
    },
    "50010610009051": {
        "name": "重庆****网吧",
        "lng": "106.307693",
        "lat": "29.608452",
        "value": 2720
    },
    "50010610009054": {
        "name": "重庆****志网吧",
        "lng": "106.307693",
        "lat": "29.608452",
        "value": 1316
    },
    "50010710000006": {
        "name": "九龙****境网吧",
        "lng": "106.519493",
        "lat": "29.514253",
        "value": 1503
    },
    "50011310000087": {
        "name": "巴南****线网吧",
        "lng": "106.549782",
        "lat": "29.469788",
        "value": 256
    },
    "50011310000088": {
        "name": "巴南****伟网吧",
        "lng": "106.526862",
        "lat": "29.384529",
        "value": 132
    },
    "50011310000089": {
        "name": "巴南****晰网吧",
        "lng": "106.547642",
        "lat": "29.406657",
        "value": 706
    },
    "50011310000091": {
        "name": "巴南****色网吧",
        "lng": "106.54183",
        "lat": "29.471707",
        "value": 516
    },
    "50011310000092": {
        "name": "巴南****语网吧",
        "lng": "106.549672",
        "lat": "29.460316",
        "value": 228
    },
    "50011310000095": {
        "name": "巴南****亚网吧",
        "lng": "106.531318",
        "lat": "29.386774",
        "value": 401
    },
    "50011310000096": {
        "name": "巴南****飞网吧",
        "lng": "106.55014",
        "lat": "29.458312",
        "value": 214
    },
    "50011310000097": {
        "name": "巴南****颖网吧",
        "lng": "106.512562",
        "lat": "29.392923",
        "value": 1097
    },
    "50011310000098": {
        "name": "巴南****语网吧",
        "lng": "106.526468",
        "lat": "29.385805",
        "value": 418
    },
    "50011310000099": {
        "name": "巴南****狼网吧",
        "lng": "106.616622",
        "lat": "29.389329",
        "value": 6852
    },
    "50011310000100": {
        "name": "巴南****石网吧",
        "lng": "106.541998",
        "lat": "29.47241",
        "value": 495
    },
    "50011310000101": {
        "name": "巴南****远网吧",
        "lng": "106.602114",
        "lat": "29.432933",
        "value": 347
    },
    "50011310000102": {
        "name": "巴南****喱网吧",
        "lng": "106.84475",
        "lat": "29.577234",
        "value": 103
    },
    "50011310000104": {
        "name": "巴南****香网吧",
        "lng": "106.869014",
        "lat": "29.45932",
        "value": 212
    },
    "50011310000105": {
        "name": "巴南****采网吧",
        "lng": "106.514564",
        "lat": "29.398062",
        "value": 322
    },
    "50011310000106": {
        "name": "巴南****尚网吧",
        "lng": "106.512623",
        "lat": "29.394744",
        "value": 122
    },
    "50011310000109": {
        "name": "巴南****韵网吧",
        "lng": "106.535096",
        "lat": "29.466086",
        "value": 1229
    },
    "50011310000110": {
        "name": "巴南****佑网吧",
        "lng": "106.525854",
        "lat": "29.387491",
        "value": 76
    },
    "50011310000112": {
        "name": "巴南****间网吧",
        "lng": "106.549308",
        "lat": "29.471544",
        "value": 1478
    },
    "50011310000113": {
        "name": "巴南****园网吧",
        "lng": "106.549376",
        "lat": "29.407811",
        "value": 47
    },
    "50011310000114": {
        "name": "巴南****和网吧",
        "lng": "106.526365",
        "lat": "29.389181",
        "value": 472
    },
    "50011310000115": {
        "name": "巴南****速网吧",
        "lng": "106.621265",
        "lat": "29.450226",
        "value": 550
    },
    "50011310000118": {
        "name": "巴南****光网吧",
        "lng": "106.540664",
        "lat": "29.46302",
        "value": 3670
    },
    "50011310000119": {
        "name": "巴南****英网吧",
        "lng": "106.534112",
        "lat": "29.46523",
        "value": 646
    },
    "50011310000121": {
        "name": "巴南****力网吧",
        "lng": "106.574668",
        "lat": "29.429525",
        "value": 129
    },
    "50011310000122": {
        "name": "巴南****络会馆",
        "lng": "106.512902",
        "lat": "29.393805",
        "value": 502
    },
    "50011310000127": {
        "name": "巴南****光网吧",
        "lng": "106.567202",
        "lat": "29.476727",
        "value": 553
    },
    "50011310000135": {
        "name": "巴南****雅网吧",
        "lng": "106.465413",
        "lat": "29.502209",
        "value": 806
    },
    "50011310000136": {
        "name": "巴南****胡网吧",
        "lng": "106.528776",
        "lat": "29.380609",
        "value": 678
    },